original_original,original_city,original_area,original_abbreviation,original_state,lat,lon,formatted,district,housenumber,name,suburb,street,county_code,postcode,city,county,state,state_code,country,country_code,confidence,confidence_city_level,confidence_street_level,attribution,attribution_license,attribution_url
Silvassa_Samrvrni_D (Dadra and Nagar Haveli),Silvassa,Samrvrni,D,Dadra and Nagar Haveli,,,,,,,,,,,,,,,,,,,,,,
Bengaluru_Sarjapur_D (Karnataka),Bengaluru,Sarjapur,D,Karnataka,12.9240089,77.6531102,"Sarjapur Road, Bengaluru - 560102, KA, India",,,Sarjapur Road,,Sarjapur Road,,560102,Bengaluru,Bangalore North,Karnataka,KA,India,in,1,1,1,© OpenStreetMap contributors,Open Database License,https://www.openstreetmap.org/copyright
Sawantwadi_LaxmiNgr_D (Maharashtra),Sawantwadi,LaxmiNgr,D,Maharashtra,15.88866,73.91638,"Sawantwadi, SI, India",,,,,,SI,,Sawantwadi,Sindhudurg,Maharashtra,MH,India,in,0.5,1,,GeoNames,CC BY 4.0,https://www.geonames.org/datasources/
Modinagar_SikriKla_DC (Uttar Pradesh),Modinagar,SikriKla,DC,Uttar Pradesh,28.8320713,77.5770873,"Modinagar, UP, India",,,,,,,201204,Modinagar,Modinagar,Uttar Pradesh,UP,India,in,0.5,1,,© OpenStreetMap contributors,Open Database License,https://www.openstreetmap.org/copyright
Khatauli_TilakNgr_D (Uttar Pradesh),Khatauli,TilakNgr,D,Uttar Pradesh,29.2780199,77.7324559,"Khatauli, UP, India",,,,,,,251201,Khatauli,Khatauli,Uttar Pradesh,UP,India,in,0.5,1,,© OpenStreetMap contributors,Open Database License,https://www.openstreetmap.org/copyright
Dhar_Trimurti_D (Madhya Pradesh),Dhar,Trimurti,D,Madhya Pradesh,22.596029,75.306449,"Dhar, DH, India",,,,,,DH,,Dhar,Dhar,Madhya Pradesh,MP,India,in,0.5,1,,Who's On First,CC0,https://www.whosonfirst.org/docs/licenses/
Ratlam_Khjurwli_DC (Madhya Pradesh),Ratlam,Khjurwli,DC,Madhya Pradesh,23.3311044,75.0360846,"Ratlam, MP, India",,,,,,,457001,Ratlam,Ratlam Nagar Tahsil,Madhya Pradesh,MP,India,in,0.5,1,,© OpenStreetMap contributors,Open Database License,https://www.openstreetmap.org/copyright
Jaora_RtlamNka_D (Madhya Pradesh),Jaora,RtlamNka,D,Madhya Pradesh,23.6379392,75.1281756,"Jaora, MP, India",Jaora,,,,,,,Jaora,Jaora Tahsil,Madhya Pradesh,MP,India,in,0.5,1,,© OpenStreetMap contributors,Open Database License,https://www.openstreetmap.org/copyright
Sonari_Central_DPP_1 (Assam),Sonari,Central,DPP1,Assam,27.0266981,95.0183272,"Sonari, AS, India",,,,,,,785690,Sonari,Sonari,Assam,AS,India,in,0.5,1,,© OpenStreetMap contributors,Open Database License,https://www.openstreetmap.org/copyright
Mangalore_Kuntikna_H (Karnataka),Mangalore,Kuntikna,H,Karnataka,12.8698101,74.8430082,"Mangaluru, KA, India",,,,,,,575001,Mangaluru,Mangaluru taluk,Karnataka,KA,India,in,0.5,1,,© OpenStreetMap contributors,Open Database License,https://www.openstreetmap.org/copyright
Kanpur_Central_D_7 (Uttar Pradesh),Kanpur,Central,D7,Uttar Pradesh,26.454660099999998,80.35179975802959,"Kanpur Central, Kanpur Cantonment, Kanpur - 208004, UP, India",,,Kanpur Central,Kanpur Cantonment,,,208004,Kanpur,Kanpur Nagar,Uttar Pradesh,UP,India,in,0.9,1,0.9,© OpenStreetMap contributors,Open Database License,https://www.openstreetmap.org/copyright
Silchar_Sirikona_H (Assam),Silchar,Sirikona,H,Assam,24.829588,92.797148,"Silchar, AS, India",,,,,,,788014,Silchar,Silchar,Assam,AS,India,in,0.5,1,,© OpenStreetMap contributors,Open Database License,https://www.openstreetmap.org/copyright
Anand_Vaghasi_IP (Gujarat),Anand,Vaghasi,IP,Gujarat,22.54853245,73.00013651825472,"Vaghasi, GJ, India",,,,,,,388320,Vaghasi,Anand Rural Taluka,Gujarat,GJ,India,in,0.405,0.81,,© OpenStreetMap contributors,Open Database License,https://www.openstreetmap.org/copyright
Manjeshwar_Central_D_1 (Kerala),Manjeshwar,Central,D1,Kerala,12.7193588,74.8861095,"Manjeshwar, KL, India",,,,,,,671323,Manjeshwar,Manjeswaram,Kerala,KL,India,in,0.5,1,,© OpenStreetMap contributors,Open Database License,https://www.openstreetmap.org/copyright
Kanhangad_Arangadi_D (Kerala),Kanhangad,Arangadi,D,Kerala,12.2997774,75.1035056,"Arangadi-Kalayara, Kanhangad South, Cheruvathur - 671315, KL, India",,,,Kanhangad South,Arangadi-Kalayara,,671315,Cheruvathur,Hosdurg,Kerala,KL,India,in,0.9,1,0.9,© OpenStreetMap contributors,Open Database License,https://www.openstreetmap.org/copyright
Trivandrum_Mnanthla_H (Kerala),Trivandrum,Mnanthla,H,Kerala,8.487468,76.952869,"Thiruvananthapuram, TV, India",,,,,,TV,,Thiruvananthapuram,Thiruvananthapuram,Kerala,KL,India,in,0,,,Who's On First,CC0,https://www.whosonfirst.org/docs/licenses/
Mainaguri_MilpaDPP_D (West Bengal),Mainaguri,MilpaDPP,D,West Bengal,26.5652519,88.8221321,"Maynaguri, WB, India",,,,,,,735224,Maynaguri,Maynaguri,West Bengal,WB,India,in,0.5,1,,© OpenStreetMap contributors,Open Database License,https://www.openstreetmap.org/copyright
Mathabhang_Pshimpra_D (West Bengal),Mathabhang,Pshimpra,D,West Bengal,23.269974,87.815506,"West Bengal, India",,,West Bengal,,,,,,,West Bengal,WB,India,in,0.25,,,Who's On First,CC0,https://www.whosonfirst.org/docs/licenses/
Aligarh_KhirByps_I (Uttar Pradesh),Aligarh,KhirByps,I,Uttar Pradesh,27.8815412,78.0690216,"Aligarh, UP, India",,,,,,,202001,Aligarh,Koil,Uttar Pradesh,UP,India,in,0.5,1,,© OpenStreetMap contributors,Open Database License,https://www.openstreetmap.org/copyright
Barmer_Nehru3PL_D (Rajasthan),Barmer,Nehru3PL,D,Rajasthan,25.745304,71.3998217,"Barmer, RJ, India",,,,,,,344001,Barmer,Barmer Tehsil,Rajasthan,RJ,India,in,0.5,1,,© OpenStreetMap contributors,Open Database License,https://www.openstreetmap.org/copyright
Jaisalmer_Gopa3PL_D (Rajasthan),Jaisalmer,Gopa3PL,D,Rajasthan,26.9116615,70.9124888,"Jaisalmer, RJ, India",,,,,,,345001,Jaisalmer,Jaisalmer Tehsil,Rajasthan,RJ,India,in,0.5,1,,© OpenStreetMap contributors,Open Database License,https://www.openstreetmap.org/copyright
Bihta_ShivNgar_D (Bihar),Bihta,ShivNgar,D,Bihar,25.5593812,84.8705661,"Bihta, BR, India",,,,,,,801103,Bihta,Bihta,Bihar,BR,India,in,0.5,1,,© OpenStreetMap contributors,Open Database License,https://www.openstreetmap.org/copyright
Arrah_Katira_D (Bihar),Arrah,Katira,D,Bihar,25.5523664,84.6543134,"Mummy's Kitchen, Katira, Station Road, Arrah - 802301, BR, India",,Katira,Mummy's Kitchen,,Station Road,,802301,Arrah,Arrah,Bihar,BR,India,in,0.567,1,0.567,© OpenStreetMap contributors,Open Database License,https://www.openstreetmap.org/copyright
Neemuch_KarjuDPP_D (Madhya Pradesh),Neemuch,KarjuDPP,D,Madhya Pradesh,24.4650023,74.8689508,"Neemuch, MP, India",,,,,,,458411,Neemuch,Neemuch Nagar Tehsil,Madhya Pradesh,MP,India,in,0.5,1,,© OpenStreetMap contributors,Open Database License,https://www.openstreetmap.org/copyright
BariSadri_BhmprDPP_D (Rajasthan),BariSadri,BhmprDPP,D,Rajasthan,24.888573,74.62596,"barisadri road, Chittaurgarh -, RJ, India",,,,,barisadri road,CH,,Chittaurgarh,Chittorgarh,Rajasthan,RJ,India,in,0,,,© OpenStreetMap contributors,Open Database License,https://www.openstreetmap.org/copyright
Deoghar_Barmasia_D (Jharkhand),Deoghar,Barmasia,D,Jharkhand,24.321002,86.562506,"Barmasia, JH, India",,,,,,,,Barmasia,Deoghar,Jharkhand,JH,India,in,0.5,1,,Who's On First,CC0,https://www.whosonfirst.org/docs/licenses/
Godda_Central_D_2 (Jharkhand),Godda,Central,D2,Jharkhand,24.8269822,87.212476,"Godda, JH, India",,,,,,,814133,Godda,Godda,Jharkhand,JH,India,in,0.5,1,,© OpenStreetMap contributors,Open Database License,https://www.openstreetmap.org/copyright
Sahebganj_BaraLoha_D (Jharkhand),Sahebganj,BaraLoha,D,Jharkhand,,,,,,,,,,,,,,,,,,,,,,
Vadnagar_BsstdDPP_D (Gujarat),Vadnagar,BsstdDPP,D,Gujarat,,,,,,,,,,,,,,,,,,,,,,
Palanpur_DC (Gujarat),Palanpur,,DC,Gujarat,24.1709794,72.4366375,"Palanpur, GJ, India",,,,,,,385001,Palanpur,Palanpur Taluka,Gujarat,GJ,India,in,1,1,,© OpenStreetMap contributors,Open Database License,https://www.openstreetmap.org/copyright
Deesa_HawaiPlr_DC (Gujarat),Deesa,HawaiPlr,DC,Gujarat,24.2594977,72.1803348,"Deesa, GJ, India",,,,,,,385500,Deesa,Deesa Taluka,Gujarat,GJ,India,in,0.5,1,,© OpenStreetMap contributors,Open Database License,https://www.openstreetmap.org/copyright
Arimbur_Veluthur_D (Kerala),Arimbur,Veluthur,D,Kerala,10.49501785,76.15764230204911,"Veluthur Department Colony, Arimbur, Thrissur, India",,,Veluthur Department Colony,,,,,Arimbur,Thrissur,Kerala,KL,India,in,0.81,1,0.81,© OpenStreetMap contributors,Open Database License,https://www.openstreetmap.org/copyright
Sankaramangalam_Central_D_1 (Kerala),Sankaramangalam,Central,D1,Kerala,10.8128527,76.1865355,"Sankaramangalam, KL, India",,,,,,,679303,Sankaramangalam,Pattambi,Kerala,KL,India,in,0.5,1,,© OpenStreetMap contributors,Open Database License,https://www.openstreetmap.org/copyright
Shoranur_KdrShrRd_D (Kerala),Shoranur,KdrShrRd,D,Kerala,10.7637196,76.272355,"Shoranur, KL, India",,,,,,,679121,Shoranur,Ottappalam,Kerala,KL,India,in,0.5,1,,© OpenStreetMap contributors,Open Database License,https://www.openstreetmap.org/copyright
Pazhayannur_AlathurRD_D (Kerala),Pazhayannur,AlathurRD,D,Kerala,10.679453,76.425802,"Pazhayannur, TS, India",,,,,,TS,,Pazhayannur,Thrissur,Kerala,KL,India,in,0.5,1,,Who's On First,CC0,https://www.whosonfirst.org/docs/licenses/
Thiruvarur_Bypasrd_D (Tamil Nadu),Thiruvarur,Bypasrd,D,Tamil Nadu,10.7666538,79.6352476,"Thiruvarur, TN, India",,,,,,,610001,Thiruvarur,Thiruvarur,Tamil Nadu,TN,India,in,0.5,1,,© OpenStreetMap contributors,Open Database License,https://www.openstreetmap.org/copyright
Thirthurpondi_Madaprum_D (Tamil Nadu),Thirthurpondi,Madaprum,D,Tamil Nadu,,,,,,,,,,,,,,,,,,,,,,
Pushpavanam_Thmpulam_D (Tamil Nadu),Pushpavanam,Thmpulam,D,Tamil Nadu,10.4531181,79.86167,"Pushpavanam, TN, India",,,,,,,,Pushpavanam,Vedaranyam,Tamil Nadu,TN,India,in,0.5,1,,© OpenStreetMap contributors,Open Database License,https://www.openstreetmap.org/copyright
Dhanbad_Kalynpur_I (Jharkhand),Dhanbad,Kalynpur,I,Jharkhand,23.7952809,86.4309638,"Dhanbad, JH, India",,,,,,,826001,Dhanbad,Dhanbad-Cum-Kenduadih-Cum-Jagata,Jharkhand,JH,India,in,0.5,1,,© OpenStreetMap contributors,Open Database License,https://www.openstreetmap.org/copyright
Chimkurthy_MSRClgRd_D (Andhra Pradesh),Chimkurthy,MSRClgRd,D,Andhra Pradesh,14.762005,78.874889,"Andhra Pradesh, India",,,Andhra Pradesh,,,,,,,Andhra Pradesh,AP,India,in,0.25,,,Who's On First,CC0,https://www.whosonfirst.org/docs/licenses/
Markapur_VidyaNgr_D (Andhra Pradesh),Markapur,VidyaNgr,D,Andhra Pradesh,15.7406698,79.2698502,"Markapur, AP, India",,,,,,,523300,Markapur,Markapur,Andhra Pradesh,AP,India,in,0.5,1,,© OpenStreetMap contributors,Open Database License,https://www.openstreetmap.org/copyright
Hamirpur_GutmgrCl_D (Himachal Pradesh),Hamirpur,GutmgrCl,D,Himachal Pradesh,31.6848695,76.5254488,"Hamirpur, HP, India",,,,,,,177001,Hamirpur,Hamirpur,Himachal Pradesh,HP,India,in,0.5,1,,© OpenStreetMap contributors,Open Database License,https://www.openstreetmap.org/copyright
Faizabad_TrnspNgr_D (Uttar Pradesh),Faizabad,TrnspNgr,D,Uttar Pradesh,26.7789282,82.142694,"Faizabad, UP, India",,,,,,,224001,Faizabad,Faizabad,Uttar Pradesh,UP,India,in,0.5,1,,© OpenStreetMap contributors,Open Database License,https://www.openstreetmap.org/copyright
Gosainganj_Pakrela_D (Uttar Pradesh),Gosainganj,Pakrela,D,Uttar Pradesh,26.58896,82.36389,"Pakrela, AY, India",,,,,,AY,,Pakrela,Ayodhya,Uttar Pradesh,UP,India,in,0,,,GeoNames,CC BY 4.0,https://www.geonames.org/datasources/
Cuddalore_KtsiGrsm_D (Tamil Nadu),Cuddalore,KtsiGrsm,D,Tamil Nadu,,,,,,,,,,,,,,,,,,,,,,
Chidambaram_ARBNorth_DC (Tamil Nadu),Chidambaram,ARBNorth,DC,Tamil Nadu,11.3994826,79.6909383,"Chidambaram, TN, India",,,,,,,608001,Chidambaram,Chidambaram,Tamil Nadu,TN,India,in,0.5,1,,© OpenStreetMap contributors,Open Database License,https://www.openstreetmap.org/copyright
Sirkazhi_Pngktgudi_D (Tamil Nadu),Sirkazhi,Pngktgudi,D,Tamil Nadu,11.2377794,79.7395752,"Sirkazhi, TN, India",,,,,,,609100,Sirkazhi,Sirkali,Tamil Nadu,TN,India,in,0.5,1,,© OpenStreetMap contributors,Open Database License,https://www.openstreetmap.org/copyright
Karaikal_Thalthru_DC (Pondicherry),Karaikal,Thalthru,DC,Pondicherry,10.932419,79.836161,"Karaikal, KA, India",,,,,,KA,,Karaikal,Karaikal,Puducherry,PY,India,in,0.32727272727272727,0.6545454545454545,,Who's On First,CC0,https://www.whosonfirst.org/docs/licenses/
Nagapttinm_Sttyapar_D (Tamil Nadu),Nagapttinm,Sttyapar,D,Tamil Nadu,,,,,,,,,,,,,,,,,,,,,,
Hyderabad_Alwal_L (Telangana),Hyderabad,Alwal,L,Telangana,17.5022292,78.5088584,"Alwal, Hyderabad, TG, India",Greater Hyderabad Municipal Corporation North Zone,,,Alwal,,,500015,Hyderabad,Alwal mandal,Telangana,TG,India,in,0.5,1,,© OpenStreetMap contributors,Open Database License,https://www.openstreetmap.org/copyright
Vijayawada (Andhra Pradesh),Vijayawada,,,Andhra Pradesh,16.5115306,80.6160469,"Vijayawada, AP, India",,,,,,,520001,Vijayawada,NTR,Andhra Pradesh,AP,India,in,1,1,,© OpenStreetMap contributors,Open Database License,https://www.openstreetmap.org/copyright
Nandigama_Chndrlpd_D (Andhra Pradesh),Nandigama,Chndrlpd,D,Andhra Pradesh,16.773982,80.282367,"Nandigama, KR, India",,,,,,KR,,Nandigama,Krishna,Andhra Pradesh,AP,India,in,0.5,1,,Who's On First,CC0,https://www.whosonfirst.org/docs/licenses/
Chennai_Egmore_C (Tamil Nadu),Chennai,Egmore,C,Tamil Nadu,13.0728321,80.2576906,"Egmore, Chennai, TN, India",,,,Egmore,,,600001,Chennai,Chennai,Tamil Nadu,TN,India,in,0.5,1,,© OpenStreetMap contributors,Open Database License,https://www.openstreetmap.org/copyright
Hyderabad_Mhdiptnm_C (Telangana),Hyderabad,Mhdiptnm,C,Telangana,,,,,,,,,,,,,,,,,,,,,,
Malda_Central_I_3 (West Bengal),Malda,Central,I3,West Bengal,25.000699,88.136755,"Central Library, Rathbari, Rabindra Ave, Malda - 732101, WB, India",,Rathbari,Central Library,,Rabindra Ave,MA,732101,Malda,Malda,West Bengal,WB,India,in,0.44099999999999995,1,0.44099999999999995,© OpenStreetMap contributors,Open Database License,https://www.openstreetmap.org/copyright
Manikchak_Enayetpr_D (West Bengal),Manikchak,Enayetpr,D,West Bengal,25.0781362,87.8986287,"Manikchak, WB, India",,,,,,,732202,Manikchak,Manikchak,West Bengal,WB,India,in,0.5,1,,© OpenStreetMap contributors,Open Database License,https://www.openstreetmap.org/copyright
Paranpur_Nijgan_D (West Bengal),Paranpur,Nijgan,D,West Bengal,25.154627,87.967921,"Nijgan Paranpur, WB, India",,,,,,,,Nijgan Paranpur,Malda,West Bengal,WB,India,in,0.45,0.9,,Who's On First,CC0,https://www.whosonfirst.org/docs/licenses/
Samsi_RatuaDPP_D (West Bengal),Samsi,RatuaDPP,D,West Bengal,25.2781725,88.0093404,"Samsi, WB, India",,,,,,,732139,Samsi,Ratua - I,West Bengal,WB,India,in,0.5,1,,© OpenStreetMap contributors,Open Database License,https://www.openstreetmap.org/copyright
Biswan_PatelNGR_D (Uttar Pradesh),Biswan,PatelNGR,D,Uttar Pradesh,27.4904821,80.995364,"Biswan, UP, India",,,,,,,261200,Biswan,Biswan,Uttar Pradesh,UP,India,in,0.5,1,,© OpenStreetMap contributors,Open Database License,https://www.openstreetmap.org/copyright
Sitapur_Chowk_D (Uttar Pradesh),Sitapur,Chowk,D,Uttar Pradesh,27.576549,80.671051,"Sitapur, SI, India",,,,,,SI,,Sitapur,Sitapur,Uttar Pradesh,UP,India,in,0.5,1,,Who's On First,CC0,https://www.whosonfirst.org/docs/licenses/
Lakhimpur_Maheva_D (Uttar Pradesh),Lakhimpur,Maheva,D,Uttar Pradesh,27.946309,80.7815166,"Lakhimpur, UP, India",,,,,,,262701,Lakhimpur,Lakhimpur,Uttar Pradesh,UP,India,in,0.5,1,,© OpenStreetMap contributors,Open Database License,https://www.openstreetmap.org/copyright
Gola_BkgnRoad_D (Uttar Pradesh),Gola,BkgnRoad,D,Uttar Pradesh,26.3449263,83.353147,"Gola Bazar, UP, India",,,,,,,273408,Gola Bazar,Gola,Uttar Pradesh,UP,India,in,0.5,1,,© OpenStreetMap contributors,Open Database License,https://www.openstreetmap.org/copyright
Dehradun_Selakui_D (Uttarakhand),Dehradun,Selakui,D,Uttarakhand,30.3255646,78.0436813,"Dehradun, UT, India",,,,,,,248001,Dehradun,Dehradun,Uttarakhand,UT,India,in,0.5,1,,© OpenStreetMap contributors,Open Database License,https://www.openstreetmap.org/copyright
Mussoorie_BrlwgDPP_D (Uttarakhand),Mussoorie,BrlwgDPP,D,Uttarakhand,30.4569012,78.0782906,"Mussoorie, UT, India",,,,,,,248179,Mussoorie,Dehradun,Uttarakhand,UT,India,in,0.5,1,,© OpenStreetMap contributors,Open Database License,https://www.openstreetmap.org/copyright
Mumbai_Virar_DC (Maharashtra),Mumbai,Virar,DC,Maharashtra,19.054999,72.8692035,"Mumbai, MH, India",,,,,,,,Mumbai,,Maharashtra,MH,India,in,0.5,1,,© OpenStreetMap contributors,Open Database License,https://www.openstreetmap.org/copyright
Gonda_KotwaliN_D (Uttar Pradesh),Gonda,KotwaliN,D,Uttar Pradesh,,,,,,,,,,,,,,,,,,,,,,
Nadiad_DC (Gujarat),Nadiad,,DC,Gujarat,22.6895535,72.8713603,"Nadiad, GJ, India",,,,,,,387001,Nadiad,Nadlad City Taluka,Gujarat,GJ,India,in,1,1,,© OpenStreetMap contributors,Open Database License,https://www.openstreetmap.org/copyright
Umreth_Dakor_DC (Gujarat),Umreth,Dakor,DC,Gujarat,22.6990518,73.115045,"Umreth, GJ, India",,,,,,,388220,Umreth,Umreth Taluka,Gujarat,GJ,India,in,0.5,1,,© OpenStreetMap contributors,Open Database License,https://www.openstreetmap.org/copyright
Gandhinagar_Kalol_DC (Gujarat),Gandhinagar,Kalol,DC,Gujarat,23.240903,72.494709,"Kalol, GA, India",,,,,,GA,,Kalol,Gandhinagar,Gujarat,GJ,India,in,0.5,1,,Who's On First,CC0,https://www.whosonfirst.org/docs/licenses/
Nagamangala_MandyaRD_D (Karnataka),Nagamangala,MandyaRD,D,Karnataka,,,,,,,,,,,,,,,,,,,,,,
Krishnarajpet_MuruPost_D (Karnataka),Krishnarajpet,MuruPost,D,Karnataka,,,,,,,,,,,,,,,,,,,,,,
Tirurangadi_Kooriyad_D (Kerala),Tirurangadi,Kooriyad,D,Kerala,11.0450256,75.936927,"Kooriyad Bypass, Tirurangadi - 676508, KL, India",,,,,Kooriyad Bypass,,676508,Tirurangadi,Tirurangadi,Kerala,KL,India,in,1,1,1,© OpenStreetMap contributors,Open Database License,https://www.openstreetmap.org/copyright
Malappuram_Munduprm_D (Kerala),Malappuram,Munduprm,D,Kerala,11.0428925,76.0807838,"Malappuram, KL, India",,,,,,,,Malappuram,Ernad,Kerala,KL,India,in,0.5,1,,© OpenStreetMap contributors,Open Database License,https://www.openstreetmap.org/copyright
Roorkee_Dc (Uttarakhand),Roorkee,,Dc,Uttarakhand,29.8693496,77.8902124,"Roorkee, UT, India",,,,,,,247667,Roorkee,Roorkee,Uttarakhand,UT,India,in,1,1,,© OpenStreetMap contributors,Open Database License,https://www.openstreetmap.org/copyright
Mumbai_CottonGreen_DPC (Maharashtra),Mumbai,CottonGreen,DPC,Maharashtra,19.054999,72.8692035,"Mumbai, MH, India",,,,,,,,Mumbai,,Maharashtra,MH,India,in,0.5,1,,© OpenStreetMap contributors,Open Database License,https://www.openstreetmap.org/copyright
Shimoga_DC (Karnataka),Shimoga,,DC,Karnataka,13.9326093,75.574978,"Shivamogga, KA, India",,,,,,,577200,Shivamogga,Shivamogga taluk,Karnataka,KA,India,in,1,1,,© OpenStreetMap contributors,Open Database License,https://www.openstreetmap.org/copyright
Rishikesh_DC (Uttarakhand),Rishikesh,,DC,Uttarakhand,30.1086537,78.2916193,"Rishikesh, UT, India",,,,,,,,Rishikesh,Dehradun,Uttarakhand,UT,India,in,1,1,,© OpenStreetMap contributors,Open Database License,https://www.openstreetmap.org/copyright
Basti_GndhiNgr_D (Uttar Pradesh),Basti,GndhiNgr,D,Uttar Pradesh,26.7895579,82.7231355,"Basti, UP, India",,,,,,,272001,Basti,Basti,Uttar Pradesh,UP,India,in,0.5,1,,© OpenStreetMap contributors,Open Database License,https://www.openstreetmap.org/copyright
Pune_Chinchwad DC (Maharashtra),Pune,,Chinchwad DC,Maharashtra,18.5213738,73.8545071,"Pune, MH, India",,,,,,,,Pune,Pune District,Maharashtra,MH,India,in,1,1,,© OpenStreetMap contributors,Open Database License,https://www.openstreetmap.org/copyright
Samana_PODPP_D (Punjab),Samana,PODPP,D,Punjab,,,,,,,,,,,,,,,,,,,,,,
Amd_Chandkheda_Dc (Gujarat),Amd,Chandkheda,Dc,Gujarat,23.107813,72.579807,"Chandkheda, Ahmedabad, AH, India",,,Chandkheda,Chandkheda,,AH,,Ahmedabad,Ahmadabad,Gujarat,GJ,India,in,0,,,Who's On First,CC0,https://www.whosonfirst.org/docs/licenses/
Mainpuri_Agraroad_I (Uttar Pradesh),Mainpuri,Agraroad,I,Uttar Pradesh,27.2270677,79.0271702,"Mainpuri, UP, India",,,,,,,205001,Mainpuri,Mainpuri,Uttar Pradesh,UP,India,in,0.5,1,,© OpenStreetMap contributors,Open Database License,https://www.openstreetmap.org/copyright
Farrukhbad_Pnchlght_D (Uttar Pradesh),Farrukhbad,Pnchlght,D,Uttar Pradesh,,,,,,,,,,,,,,,,,,,,,,
Shahabad_KDRoad_D (Uttar Pradesh),Shahabad,KDRoad,D,Uttar Pradesh,27.6446688,79.9394235,"Shahabad, UP, India",,,,,,,241124,Shahabad,Shahabad,Uttar Pradesh,UP,India,in,0.5,1,,© OpenStreetMap contributors,Open Database License,https://www.openstreetmap.org/copyright
Tilhar_SingCLNY_D (Uttar Pradesh),Tilhar,SingCLNY,D,Uttar Pradesh,27.9627265,79.7375927,"Tilhar, UP, India",,,,,,,242307,Tilhar,Tilhar,Uttar Pradesh,UP,India,in,0.5,1,,© OpenStreetMap contributors,Open Database License,https://www.openstreetmap.org/copyright
Jalalabad_farukngr_D (Uttar Pradesh),Jalalabad,farukngr,D,Uttar Pradesh,27.100783,79.782495,"Jalalabad, KJ, India",,,,,,KJ,,Jalalabad,Kannauj,Uttar Pradesh,UP,India,in,0.5,1,,Who's On First,CC0,https://www.whosonfirst.org/docs/licenses/
Bhatinda_DPC (Punjab),Bhatinda,,DPC,Punjab,30.206791,74.9463699,"Bathinda, PB, India",,,,,,,151001,Bathinda,Bathinda Tahsil,Punjab,PB,India,in,0.675,0.675,,© OpenStreetMap contributors,Open Database License,https://www.openstreetmap.org/copyright
Brajrajnagar_LamtiDPP_D (Orissa),Brajrajnagar,LamtiDPP,D,Orissa,,,,,,,,,,,,,,,,,,,,,,
Sundargarh_DiyoDPP_D (Orissa),Sundargarh,DiyoDPP,D,Orissa,,,,,,,,,,,,,,,,,,,,,,
Narsinghgarh_Central_D_1 (Madhya Pradesh),Narsinghgarh,Central,D1,Madhya Pradesh,23.9956625,79.3945884,"Narsinghgarh, MP, India",,,,,,,,Narsinghgarh,Patharia Tahsil,Madhya Pradesh,MP,India,in,0.5,1,,© OpenStreetMap contributors,Open Database License,https://www.openstreetmap.org/copyright
Pachore_Shop3DPP_D (Madhya Pradesh),Pachore,Shop3DPP,D,Madhya Pradesh,23.7137046,76.732889,"Pachore, MP, India",,,,,,,465683,Pachore,Sarangpur Tahsil,Madhya Pradesh,MP,India,in,0.5,1,,© OpenStreetMap contributors,Open Database License,https://www.openstreetmap.org/copyright
Ongole_SubhVRTL_I (Andhra Pradesh),Ongole,SubhVRTL,I,Andhra Pradesh,15.5058714,80.0499454,"Ongole, AP, India",,,,,,,523002,Ongole,Ongole,Andhra Pradesh,AP,India,in,0.5,1,,© OpenStreetMap contributors,Open Database License,https://www.openstreetmap.org/copyright
Makrana_Mwalibad_D (Rajasthan),Makrana,Mwalibad,D,Rajasthan,27.0388103,74.7271171,"Makrana, RJ, India",,,,,,,341505,Makrana,Makrana Tehsil,Rajasthan,RJ,India,in,0.5,1,,© OpenStreetMap contributors,Open Database License,https://www.openstreetmap.org/copyright
Degana_BhukrdPP_D (Rajasthan),Degana,BhukrdPP,D,Rajasthan,26.8958747,74.3222498,"Degana, RJ, India",,,,,,,341503,Degana,Degana Tehsil,Rajasthan,RJ,India,in,0.5,1,,© OpenStreetMap contributors,Open Database License,https://www.openstreetmap.org/copyright
Merta_Central_DPP_1 (Rajasthan),Merta,Central,DPP1,Rajasthan,24.6354905,73.8583803,"Merta, RJ, India",,,,,,,313022,Merta,Mavli Tehsil,Rajasthan,RJ,India,in,0.5,1,,© OpenStreetMap contributors,Open Database License,https://www.openstreetmap.org/copyright
Firozabad_Sudmpuri_D (Uttar Pradesh),Firozabad,Sudmpuri,D,Uttar Pradesh,27.1527986,78.3991439,"Firozabad, UP, India",,,,,,,283203,Firozabad,Firozabad,Uttar Pradesh,UP,India,in,0.5,1,,© OpenStreetMap contributors,Open Database License,https://www.openstreetmap.org/copyright
Chinnur_AsnsdhRD_D (Telangana),Chinnur,AsnsdhRD,D,Telangana,18.85779,79.7956,"Chinnūr, AD, India",,,,,,AD,,Chinnūr,Adilabad,Telangana,TG,India,in,0.5,1,,GeoNames,CC BY 4.0,https://www.geonames.org/datasources/
Manthani_Chaitnya_D (Telangana),Manthani,Chaitnya,D,Telangana,13.099542,77.586164,"Chaitnya nursing School, Yelahanka Satellite Town, Bangalore - 560064, KA, India",Yelahanka,,Chaitnya nursing School,Yelahanka Satellite Town,,BN,560064,Bangalore,Bangalore,Karnataka,KA,India,in,0,,,© OpenStreetMap contributors,Open Database License,https://www.openstreetmap.org/copyright
Jamnagar_Dc (Gujarat),Jamnagar,,Dc,Gujarat,22.4732415,70.0552102,"Jamnagar, GJ, India",,,,,,,,Jamnagar,Jamnagar City Taluka,Gujarat,GJ,India,in,1,1,,© OpenStreetMap contributors,Open Database License,https://www.openstreetmap.org/copyright
Gooty_StatonRd_D (Andhra Pradesh),Gooty,StatonRd,D,Andhra Pradesh,15.12279,77.636011,"Gooty, AP, India",,,,,,,515401,Gooty,Gooty,Andhra Pradesh,AP,India,in,0.5,1,,© OpenStreetMap contributors,Open Database License,https://www.openstreetmap.org/copyright
Duddhi_MChwkDPP_D (Uttar Pradesh),Duddhi,MChwkDPP,D,Uttar Pradesh,24.213453,83.23655,"CHC Duddhi, Dudhi - 231208, UP, India",,,CHC Duddhi,,,SO,231208,Dudhi,Sonbhadra,Uttar Pradesh,UP,India,in,0,0.9,,© OpenStreetMap contributors,Open Database License,https://www.openstreetmap.org/copyright
Renukoot_Govind_D (Uttar Pradesh),Renukoot,Govind,D,Uttar Pradesh,24.2188171,83.0382342,"Renukoot, UP, India",,,,,,,231217,Renukoot,Dudhi,Uttar Pradesh,UP,India,in,0.5,1,,© OpenStreetMap contributors,Open Database License,https://www.openstreetmap.org/copyright
Anpara_Parasi_D (Uttar Pradesh),Anpara,Parasi,D,Uttar Pradesh,24.197699,82.780445,"Anpara, SO, India",,,,,,SO,,Anpara,Sonbhadra,Uttar Pradesh,UP,India,in,0.5,1,,Who's On First,CC0,https://www.whosonfirst.org/docs/licenses/
Singrauli_Waidhan_D (Madhya Pradesh),Singrauli,Waidhan,D,Madhya Pradesh,24.1260312,82.61527448412937,"Waidhan, MP, India",Waidhan,,,,,,,Waidhan,Singrauli Tahsil,Madhya Pradesh,MP,India,in,0.45,0.9,,© OpenStreetMap contributors,Open Database License,https://www.openstreetmap.org/copyright
Singrauli_Ward8DPP_D (Madhya Pradesh),Singrauli,Ward8DPP,D,Madhya Pradesh,24.1974432,82.6661453,"Singrauli, MP, India",,,,,,,486889,Singrauli,Singrauli Tahsil,Madhya Pradesh,MP,India,in,0.5,1,,© OpenStreetMap contributors,Open Database License,https://www.openstreetmap.org/copyright
Chopan_PreetDPP_D (Uttar Pradesh),Chopan,PreetDPP,D,Uttar Pradesh,24.5178532,83.0234741,"Chopan, UP, India",,,,,,,231205,Chopan,Robertsganj,Uttar Pradesh,UP,India,in,0.5,1,,© OpenStreetMap contributors,Open Database License,https://www.openstreetmap.org/copyright
Chennai_Madhavaram_DPC (Tamil Nadu),Chennai,Madhavaram,DPC,Tamil Nadu,13.14989,80.213044,"Madhavaram, Chennai, CH, India",Madhavaram,,Madhavaram,,,CH,,Chennai,Chennai,Tamil Nadu,TN,India,in,0.5,1,,Who's On First,CC0,https://www.whosonfirst.org/docs/licenses/
Himmatnagar_DC (Gujarat),Himmatnagar,,DC,Gujarat,26.84138,74.2700672,"Himmatnagar, RJ, India",,,,,,,,Himmatnagar,Degana Tehsil,Rajasthan,RJ,India,in,0.25,0.25,,© OpenStreetMap contributors,Open Database License,https://www.openstreetmap.org/copyright
LakhimpurN_SashPhkn_D (Assam),LakhimpurN,SashPhkn,D,Assam,,,,,,,,,,,,,,,,,,,,,,
Dhemaji_WardNo3_D (Assam),Dhemaji,WardNo3,D,Assam,27.4763797,94.5629622,"Dhemaji, AS, India",,,,,,,787057,Dhemaji,Dhemaji,Assam,AS,India,in,0.25,1,,© OpenStreetMap contributors,Open Database License,https://www.openstreetmap.org/copyright
Likabali_ZoomCDPP_D (Arunachal Pradesh),Likabali,ZoomCDPP,D,Arunachal Pradesh,27.6588306,94.6977781,"Likabali, AR, India",,,,,,,,Likabali,Likabali SDO,Arunachal Pradesh,AR,India,in,0.5,1,,© OpenStreetMap contributors,Open Database License,https://www.openstreetmap.org/copyright
Vapi_IndEstat_I (Gujarat),Vapi,IndEstat,I,Gujarat,20.371603,72.9166501,"Vapi, GJ, India",,,,,,,396191,Vapi,Vapi Taluka,Gujarat,GJ,India,in,0.5,1,,© OpenStreetMap contributors,Open Database License,https://www.openstreetmap.org/copyright
Katwa_BSarani_D (West Bengal),Katwa,BSarani,D,West Bengal,23.644278,88.1287333,"Katwa, WB, India",,,,,,,713130,Katwa,Katwa - I,West Bengal,WB,India,in,0.5,1,,© OpenStreetMap contributors,Open Database License,https://www.openstreetmap.org/copyright
Chapra_NagarDPP_D (West Bengal),Chapra,NagarDPP,D,West Bengal,23.5203126,88.5498071,"Chapra, WB, India",,,,,,,741123,Chapra,Chapra,West Bengal,WB,India,in,0.5,1,,© OpenStreetMap contributors,Open Database License,https://www.openstreetmap.org/copyright
Nakashipara_MaxDPP_D (West Bengal),Nakashipara,MaxDPP,D,West Bengal,23.592169,88.3404207,"Nakashipara, WB, India",,,,,,,741126,Nakashipara,Nakashipara,West Bengal,WB,India,in,0.5,1,,© OpenStreetMap contributors,Open Database License,https://www.openstreetmap.org/copyright
Plassey_BtaiRoad_D (West Bengal),Plassey,BtaiRoad,D,West Bengal,23.785157,88.254699,"Palasi, Mira, WB, India",,,Palasi,Palasi,,,,Mira,Nadia,West Bengal,WB,India,in,0,,,Who's On First,CC0,https://www.whosonfirst.org/docs/licenses/
Surendranagar_DC (Gujarat),Surendranagar,,DC,Gujarat,22.72317,71.648352,"Surendranagar, GJ, India",,,,,,,,Surendranagar,Wadhwan Taluka,Gujarat,GJ,India,in,1,1,,© OpenStreetMap contributors,Open Database License,https://www.openstreetmap.org/copyright
Limbdi_Busstand_D (Gujarat),Limbdi,Busstand,D,Gujarat,20.331472,72.872667,"Punant Busstand, Dhodi Pada, GJ, India",,,Punant Busstand,Punant Busstand,,,,Dhodi Pada,Valsad,Gujarat,GJ,India,in,0.1111111111111111,0.2222222222222222,,Who's On First,CC0,https://www.whosonfirst.org/docs/licenses/
Tiruvalla_TKRoad_D (Kerala),Tiruvalla,TKRoad,D,Kerala,9.3867448,76.5762652,"Thiruvalla, KL, India",,,,,,,689111,Thiruvalla,Thiruvalla,Kerala,KL,India,in,0.5,1,,© OpenStreetMap contributors,Open Database License,https://www.openstreetmap.org/copyright
Kuthuparamba_IdstrlAr_D (Kerala),Kuthuparamba,IdstrlAr,D,Kerala,11.826973,75.564533,"Kuthuparamba Vetinary Hospital, Kaitheri - 670643, KL, India",,,Kuthuparamba Vetinary Hospital,,,KN,670643,Kaitheri,Kannur,Kerala,KL,India,in,0,0.81,,© OpenStreetMap contributors,Open Database License,https://www.openstreetmap.org/copyright
Ghumarwin_Gndhichk_D (Himachal Pradesh),Ghumarwin,Gndhichk,D,Himachal Pradesh,31.4421256,76.7075073,"Ghumarwin, HP, India",,,,,,,174021,Ghumarwin,,Himachal Pradesh,HP,India,in,0.5,1,,© OpenStreetMap contributors,Open Database License,https://www.openstreetmap.org/copyright
Jahu_Sulgwan_D (Himachal Pradesh),Jahu,Sulgwan,D,Himachal Pradesh,31.5907061,76.7224443,"Jahu, HP, India",,,,,,,176048,Jahu,Bhoranj,Himachal Pradesh,HP,India,in,0.5,1,,© OpenStreetMap contributors,Open Database License,https://www.openstreetmap.org/copyright
JognderNgr_Dhelu_D (Himachal Pradesh),JognderNgr,Dhelu,D,Himachal Pradesh,31.98963,76.77678,"Dhelu, HP, India",,,,,,,,Dhelu,Mandi,Himachal Pradesh,HP,India,in,0,,,Who's On First,CC0,https://www.whosonfirst.org/docs/licenses/
Chandigarh_Panchkula (Chandigarh),Chandigarh,,Panchkula,Chandigarh,30.7334421,76.7797143,"Chandigarh, CH, India",,,,,,,,Chandigarh,Chandigarh,Chandigarh,CH,India,in,1,1,,© OpenStreetMap contributors,Open Database License,https://www.openstreetmap.org/copyright
Chennai_Chrompet_L (Tamil Nadu),Chennai,Chrompet,L,Tamil Nadu,13.0836939,80.270186,"Chennai, TN, India",,,,,,,600001,Chennai,Chennai,Tamil Nadu,TN,India,in,0.5,1,,© OpenStreetMap contributors,Open Database License,https://www.openstreetmap.org/copyright
Wardha_RamaNgr_D (Maharashtra),Wardha,RamaNgr,D,Maharashtra,,,,,,,,,,,,,,,,,,,,,,
Deoli_Central_DPP_2 (Maharashtra),Deoli,Central,DPP2,Maharashtra,20.651143,78.478513,"Deoli, WR, India",,,,,,WR,,Deoli,Wardha,Maharashtra,MH,India,in,0.5,1,,Who's On First,CC0,https://www.whosonfirst.org/docs/licenses/
Fatepur_NH117_D (West Bengal),Fatepur,NH117,D,West Bengal,22.943483,88.58905,"Fatepur, WB, India",,,,,,,741249,Fatepur,Haringhata,West Bengal,WB,India,in,0.5,1,,© OpenStreetMap contributors,Open Database License,https://www.openstreetmap.org/copyright
Barnala_DC (Punjab),Barnala,,DC,Punjab,29.9511419,75.4347037,"Barnala, PB, India",,,,,,,,Barnala,Mansa Tehsil,Punjab,PB,India,in,1,1,,© OpenStreetMap contributors,Open Database License,https://www.openstreetmap.org/copyright
Muzaffrngr_MhmodNgr_D (Uttar Pradesh),Muzaffrngr,MhmodNgr,D,Uttar Pradesh,,,,,,,,,,,,,,,,,,,,,,
Deoband_Ramvlg_D (Uttar Pradesh),Deoband,Ramvlg,D,Uttar Pradesh,29.6934924,77.6779885,"Deoband, UP, India",,,,,,,247554,Deoband,Deoband,Uttar Pradesh,UP,India,in,0.5,1,,© OpenStreetMap contributors,Open Database License,https://www.openstreetmap.org/copyright
Deoria_CCRoad_D (Uttar Pradesh),Deoria,CCRoad,D,Uttar Pradesh,26.4998975,83.7829787,"Deoria, UP, India",,,,,,,274001,Deoria,Deoria,Uttar Pradesh,UP,India,in,0.5,1,,© OpenStreetMap contributors,Open Database License,https://www.openstreetmap.org/copyright
Kushinagar_KasyaDPP_D (Uttar Pradesh),Kushinagar,KasyaDPP,D,Uttar Pradesh,26.7438272,83.9162322,"Kushinagar, UP, India",,,,,,,274402,Kushinagar,Kasya,Uttar Pradesh,UP,India,in,0.5,1,,© OpenStreetMap contributors,Open Database License,https://www.openstreetmap.org/copyright
Padrauna_BawliDPPP_D (Uttar Pradesh),Padrauna,BawliDPPP,D,Uttar Pradesh,26.9036455,83.9793208,"Padrauna, UP, India",,,,,,,,Padrauna,Padrauna,Uttar Pradesh,UP,India,in,0.5,1,,© OpenStreetMap contributors,Open Database License,https://www.openstreetmap.org/copyright
Kaptanganj_Subshngr_D (Uttar Pradesh),Kaptanganj,Subshngr,D,Uttar Pradesh,,,,,,,,,,,,,,,,,,,,,,
Gwalior_HrihrNgr_I (Madhya Pradesh),Gwalior,HrihrNgr,I,Madhya Pradesh,26.2037247,78.1573628,"Gwalior, MP, India",,,,,,,474001,Gwalior,Gird Tahsil,Madhya Pradesh,MP,India,in,0.5,1,,© OpenStreetMap contributors,Open Database License,https://www.openstreetmap.org/copyright
Tirpur_Palladam_DC (Tamil Nadu),Tirpur,Palladam,DC,Tamil Nadu,10.995882,77.281034,"Palladam, TP, India",,,,,,TP,,Palladam,Tiruppur,Tamil Nadu,TN,India,in,0.3375,0.675,,Who's On First,CC0,https://www.whosonfirst.org/docs/licenses/
Dharapuram_Techrcly_D (Tamil Nadu),Dharapuram,Techrcly,D,Tamil Nadu,,,,,,,,,,,,,,,,,,,,,,
Kangayam_Thvlrsrt_D (Tamil Nadu),Kangayam,Thvlrsrt,D,Tamil Nadu,11.003583,77.559658,"Kangeyam, TP, India",,,,,,TP,,Kangeyam,Tiruppur,Tamil Nadu,TN,India,in,0.39375,0.7875,,Who's On First,CC0,https://www.whosonfirst.org/docs/licenses/
Mumbai Antop Hill (Maharashtra),Mumbai Antop Hill,,,Maharashtra,19.0239461,72.8685474,"Antop Hill, Mumbai, MH, India",Zone 2,,,Antop Hill,,,400037,Mumbai,,Maharashtra,MH,India,in,0.6666666666666667,0.6666666666666667,,© OpenStreetMap contributors,Open Database License,https://www.openstreetmap.org/copyright
Jalore_RoopNgr_D (Rajasthan),Jalore,RoopNgr,D,Rajasthan,25.3476006,72.6260916,"Jalore, RJ, India",,,,,,,343001,Jalore,Jalor Tehsil,Rajasthan,RJ,India,in,0.5,1,,© OpenStreetMap contributors,Open Database License,https://www.openstreetmap.org/copyright
Bhinmal_RwStnDPP_D (Rajasthan),Bhinmal,RwStnDPP,D,Rajasthan,25.0071053,72.2653077,"Bhinmal, RJ, India",,,,,,,343029,Bhinmal,Bhinmal Tehsil,Rajasthan,RJ,India,in,0.5,1,,© OpenStreetMap contributors,Open Database License,https://www.openstreetmap.org/copyright
Porbandar_DC (Gujarat),Porbandar,,DC,Gujarat,21.6409,69.611,"Porbandar, GJ, India",,,,,,,360500,Porbandar,Porbandar Taluka,Gujarat,GJ,India,in,1,1,,© OpenStreetMap contributors,Open Database License,https://www.openstreetmap.org/copyright
Jamjodhpur_Court_D (Gujarat),Jamjodhpur,Court,D,Gujarat,21.90219,70.0357,"Jamjodhpur, JM, India",,,,,,JM,,Jamjodhpur,Jamnagar,Gujarat,GJ,India,in,0.5,1,,Who's On First,CC0,https://www.whosonfirst.org/docs/licenses/
Shikohabad_Katrmira_D (Uttar Pradesh),Shikohabad,Katrmira,D,Uttar Pradesh,27.1037645,78.5881058,"Shikohabad, UP, India",,,,,,,205135,Shikohabad,Shikohabad,Uttar Pradesh,UP,India,in,0.5,1,,© OpenStreetMap contributors,Open Database License,https://www.openstreetmap.org/copyright
Hyderabad_North_D_2 (Telangana),Hyderabad,North,D2,Telangana,17.5033551,78.4780443,"Tnr North City Residence, Ward 132 Jeedimetla, Hyderabad - 500009, TG, India",Greater Hyderabad Municipal Corporation North Zone,,Tnr North City Residence,Ward 132 Jeedimetla,Tnr North City Residence,,500009,Hyderabad,Quthbullapur mandal,Telangana,TG,India,in,0.7290000000000001,1,0.7290000000000001,© OpenStreetMap contributors,Open Database License,https://www.openstreetmap.org/copyright
Medchal_MROoffce_D (Telangana),Medchal,MROoffce,D,Telangana,17.6339929,78.4843146,"Medchal, TG, India",,,,,,,501400,Medchal,Medchal mandal,Telangana,TG,India,in,0.5,1,,© OpenStreetMap contributors,Open Database License,https://www.openstreetmap.org/copyright
Coimbatore_ElngoNgr_C (Tamil Nadu),Coimbatore,ElngoNgr,C,Tamil Nadu,11.0018115,76.9628425,"Coimbatore, TN, India",,,,,,,641001,Coimbatore,Coimbatore North,Tamil Nadu,TN,India,in,0.5,1,,© OpenStreetMap contributors,Open Database License,https://www.openstreetmap.org/copyright
Jalandhar_DC (Punjab),Jalandhar,,DC,Punjab,31.3323762,75.576889,"Jalandhar, PB, India",,,,,,,144001,Jalandhar,Jalandhar I Tahsil,Punjab,PB,India,in,1,1,,© OpenStreetMap contributors,Open Database License,https://www.openstreetmap.org/copyright
Chennai_Perungudi_DPC (Tamil Nadu),Chennai,Perungudi,DPC,Tamil Nadu,12.9760584,80.2321916,"Perungudi MRTS Railway Station Road, Zone 13 Adyar, Chennai - 600042, TN, India",Udhayam Nagar,,Perungudi,Zone 13 Adyar,Perungudi MRTS Railway Station Road,,600042,Chennai,Chennai,Tamil Nadu,TN,India,in,0.7290000000000001,1,0.7290000000000001,© OpenStreetMap contributors,Open Database License,https://www.openstreetmap.org/copyright
Bulndshahr_Ymunpurm_D (Uttar Pradesh),Bulndshahr,Ymunpurm,D,Uttar Pradesh,26.879641,80.56982,"Uttar Pradesh, India",,,Uttar Pradesh,,,,,,,Uttar Pradesh,UP,India,in,0.25,,,Who's On First,CC0,https://www.whosonfirst.org/docs/licenses/
Bhopal_Old City (Madhya Pradesh),Bhopal,,Old City,Madhya Pradesh,23.2584857,77.401989,"Bhopal, MP, India",,,,,,,462001,Bhopal,Huzur Tahsil,Madhya Pradesh,MP,India,in,1,1,,© OpenStreetMap contributors,Open Database License,https://www.openstreetmap.org/copyright
Hisar_ModelTwn_P (Haryana),Hisar,ModelTwn,P,Haryana,29.1562688,75.7292303,"Hisar, HR, India",,,,,,,125001,Hisar,Hisar,Haryana,HR,India,in,0.5,1,,© OpenStreetMap contributors,Open Database License,https://www.openstreetmap.org/copyright
Hanumangarh_DC (Rajasthan),Hanumangarh,,DC,Rajasthan,26.3554397,75.41507,"Hanumangarh, RJ, India",,,,,,,,Hanumangarh,Malpura Tehsil,Rajasthan,RJ,India,in,1,1,,© OpenStreetMap contributors,Open Database License,https://www.openstreetmap.org/copyright
Mumbai_CotnGren_M (Maharashtra),Mumbai,CotnGren,M,Maharashtra,19.054999,72.8692035,"Mumbai, MH, India",,,,,,,,Mumbai,,Maharashtra,MH,India,in,0.5,1,,© OpenStreetMap contributors,Open Database License,https://www.openstreetmap.org/copyright
Parakkdavu_KeRoad_D (Kerala),Parakkdavu,KeRoad,D,Kerala,,,,,,,,,,,,,,,,,,,,,,
Mundakayam_Central_D_1 (Kerala),Mundakayam,Central,D1,Kerala,9.53866135,76.88497089481038,"Central Excise Range Office, Mundakayam, LIC Mudakayam Entrance, Puthenchantha, Mundakkayam - 686513, KL, India",,,"Central Excise Range Office, Mundakayam",Puthenchantha,LIC Mudakayam Entrance,,686513,Mundakkayam,Kanjirappally,Kerala,KL,India,in,0.27782999999999997,1,0.27782999999999997,© OpenStreetMap contributors,Open Database License,https://www.openstreetmap.org/copyright
Hailakandi_kalibari_D (Assam),Hailakandi,kalibari,D,Assam,24.6846916,92.5645836,"Hailakandi, AS, India",,,,,,,788151,Hailakandi,Hailakandi,Assam,AS,India,in,0.5,1,,© OpenStreetMap contributors,Open Database License,https://www.openstreetmap.org/copyright
Karimganj_Alngjuri_D (Assam),Karimganj,Alngjuri,D,Assam,24.8647214,92.3681114,"Karimganj, AS, India",,,,,,,788710,Karimganj,Karimganj,Assam,AS,India,in,0.5,1,,© OpenStreetMap contributors,Open Database License,https://www.openstreetmap.org/copyright
Guwahati_East (Assam),Guwahati,,East,Assam,26.1805978,91.753943,"Guwahati, AS, India",,,,,,,781015,Guwahati,Guwahati,Assam,AS,India,in,1,1,,© OpenStreetMap contributors,Open Database License,https://www.openstreetmap.org/copyright
Sathyamangalam_Mlydpthr_D (Tamil Nadu),Sathyamangalam,Mlydpthr,D,Tamil Nadu,10.4807146,78.7701246,"Sathyamangalam, TN, India",,,,,,,,Sathyamangalam,Kulathur taluk,Tamil Nadu,TN,India,in,0.5,1,,© OpenStreetMap contributors,Open Database License,https://www.openstreetmap.org/copyright
Anthiyour_TherSRT_D (Tamil Nadu),Anthiyour,TherSRT,D,Tamil Nadu,,,,,,,,,,,,,,,,,,,,,,
Akbarpur_NehruNGR_D (Uttar Pradesh),Akbarpur,NehruNGR,D,Uttar Pradesh,,,,,,,,,,,,,,,,,,,,,,
Kurukshetra_DC (Haryana),Kurukshetra,,DC,Haryana,29.9693747,76.8482787,"Kurukshetra, HR, India",,,,,,,132118,Kurukshetra,Thanesar,Haryana,HR,India,in,1,1,,© OpenStreetMap contributors,Open Database License,https://www.openstreetmap.org/copyright
Pehowa_WdN14DPP_D (Haryana),Pehowa,WdN14DPP,D,Haryana,29.9783724,76.5832383,"Pehowa, HR, India",,,,,,,132128,Pehowa,Pehowa,Haryana,HR,India,in,0.5,1,,© OpenStreetMap contributors,Open Database License,https://www.openstreetmap.org/copyright
Kaithal_DC (Haryana),Kaithal,,DC,Haryana,29.7996588,76.3989903,"Kaithal, HR, India",,,,,,,132027,Kaithal,Kaithal,Haryana,HR,India,in,1,1,,© OpenStreetMap contributors,Open Database License,https://www.openstreetmap.org/copyright
Safidon_HatRDDPP_D (Haryana),Safidon,HatRDDPP,D,Haryana,29.4047614,76.6599089,"Safidon, HR, India",,,,,,,125112,Safidon,Safidon,Haryana,HR,India,in,0.5,1,,© OpenStreetMap contributors,Open Database License,https://www.openstreetmap.org/copyright
Hyderabad_Bownplly_C (Telangana),Hyderabad,Bownplly,C,Telangana,17.667896,77.589444,"Hyderabad, ME, India",,,,,,ME,,Hyderabad,Medak,Telangana,TG,India,in,0.5,1,,Who's On First,CC0,https://www.whosonfirst.org/docs/licenses/
Kotagiri_CroslySRT_D (Tamil Nadu),Kotagiri,CroslySRT,D,Tamil Nadu,11.4230431,76.8658211,"Kotagiri, TN, India",,,,,,,643217,Kotagiri,Kotagiri,Tamil Nadu,TN,India,in,0.5,1,,© OpenStreetMap contributors,Open Database License,https://www.openstreetmap.org/copyright
Shajapur_MhpraRD_D (Madhya Pradesh),Shajapur,MhpraRD,D,Madhya Pradesh,23.4240705,76.2838697,"Shajapur, MP, India",,,,,,,465001,Shajapur,Shajapur Tahsil,Madhya Pradesh,MP,India,in,0.5,1,,© OpenStreetMap contributors,Open Database License,https://www.openstreetmap.org/copyright
BOM_Sakinaka_RP (Maharashtra),BOM,Sakinaka,RP,Maharashtra,19.100402,72.88178,"Sakinaka Tele Exchange Lane, Mohili, Mumbai -, MH, India",Zone 5,,,Mohili,Sakinaka Tele Exchange Lane,MU,,Mumbai,Mumbai City,Maharashtra,MH,India,in,0,,,© OpenStreetMap contributors,Open Database License,https://www.openstreetmap.org/copyright
Raichur_LSRoad_DC (Karnataka),Raichur,LSRoad,DC,Karnataka,16.1983225,77.3527444,"Raichur, KA, India",,,,,,,584100,Raichur,Rayachuru taluku,Karnataka,KA,India,in,0.5,1,,© OpenStreetMap contributors,Open Database License,https://www.openstreetmap.org/copyright
Suratgarh_Central_DPP_2 (Rajasthan),Suratgarh,Central,DPP2,Rajasthan,29.318755,73.901987,"Suratgarh, GA, India",,,,,,GA,,Suratgarh,Ganganagar,Rajasthan,RJ,India,in,0.5,1,,Who's On First,CC0,https://www.whosonfirst.org/docs/licenses/
Srivijaynagar_BhwanDPP_D (Rajasthan),Srivijaynagar,BhwanDPP,D,Rajasthan,,,,,,,,,,,,,,,,,,,,,,
Humnabad_EBroad_D (Karnataka),Humnabad,EBroad,D,Karnataka,17.772604,77.128889,"Homnabad, BD, India",,,,,,BD,,Homnabad,Bidar,Karnataka,KA,India,in,0.39375,0.7875,,Who's On First,CC0,https://www.whosonfirst.org/docs/licenses/
Bidar (Karnataka),Bidar,,,Karnataka,17.9143767,77.5263568,"Bidar, KA, India",,,,,,,585400,Bidar,Bidar taluku,Karnataka,KA,India,in,1,1,,© OpenStreetMap contributors,Open Database License,https://www.openstreetmap.org/copyright
Narayankhed_Datatrya_D (Telangana),Narayankhed,Datatrya,D,Telangana,18.034806,77.777289,"Narayankhed, TG, India",,,,,,,,Narayankhed,Medak,Telangana,TG,India,in,0.5,1,,Who's On First,CC0,https://www.whosonfirst.org/docs/licenses/
Zahirabad_Mohim_D (Telangana),Zahirabad,Mohim,D,Telangana,25.862417,86.305407,"Mohim Khurd, BR, India",,,,,,,,Mohim Khurd,Samastipur,Bihar,BR,India,in,0,,,Who's On First,CC0,https://www.whosonfirst.org/docs/licenses/
Manmad_Malegaon_D (Maharashtra),Manmad,Malegaon,D,Maharashtra,20.2519828,74.4392286,"Manmad, MH, India",,,,,,,423104,Manmad,Nandgaon Taluka,Maharashtra,MH,India,in,0.5,1,,© OpenStreetMap contributors,Open Database License,https://www.openstreetmap.org/copyright
Malegaon_Rawlgaon_D (Maharashtra),Malegaon,Rawlgaon,D,Maharashtra,,,,,,,,,,,,,,,,,,,,,,
Pen_BljiMrkt_D (Maharashtra),Pen,BljiMrkt,D,Maharashtra,18.736151,73.0949798,"Pen, MH, India",,,,,,,402107,Pen,Pen Taluka,Maharashtra,MH,India,in,0.5,1,,© OpenStreetMap contributors,Open Database License,https://www.openstreetmap.org/copyright
Roha_DataSagr_D (Maharashtra),Roha,DataSagr,D,Maharashtra,,,,,,,,,,,,,,,,,,,,,,
Mahad_Govndsgr_D (Maharashtra),Mahad,Govndsgr,D,Maharashtra,,,,,,,,,,,,,,,,,,,,,,
Udupi (Karnataka),Udupi,,,Karnataka,13.3419169,74.7473232,"Udupi, KA, India",,,,,,,576101,Udupi,Udupi taluku,Karnataka,KA,India,in,1,1,,© OpenStreetMap contributors,Open Database License,https://www.openstreetmap.org/copyright
Kundapura_DC (Karnataka),Kundapura,,DC,Karnataka,13.6250993,74.6915722,"Kundapura, KA, India",,,,,,,576200,Kundapura,Kundapura,Karnataka,KA,India,in,1,1,,© OpenStreetMap contributors,Open Database License,https://www.openstreetmap.org/copyright
Bhatkal_KmkshBul_D (Karnataka),Bhatkal,KmkshBul,D,Karnataka,13.9873619,74.5544089,"Bhatkal, KA, India",,,,,,,581320,Bhatkal,Bhatkal taluk,Karnataka,KA,India,in,0.5,1,,© OpenStreetMap contributors,Open Database License,https://www.openstreetmap.org/copyright
Honnavar_Prbhtngr_D (Karnataka),Honnavar,Prbhtngr,D,Karnataka,14.2810827,74.4446716,"Honnavar, KA, India",,,,,,,581334,Honnavar,Honnavar taluku,Karnataka,KA,India,in,0.5,1,,© OpenStreetMap contributors,Open Database License,https://www.openstreetmap.org/copyright
Kumta_Central_DPP_2 (Karnataka),Kumta,Central,DPP2,Karnataka,14.4261647,74.4107617,"Kumta, KA, India",,,,,,,581343,Kumta,Kumata taluk,Karnataka,KA,India,in,0.5,1,,© OpenStreetMap contributors,Open Database License,https://www.openstreetmap.org/copyright
Ankola_Kakrmath_D (Karnataka),Ankola,Kakrmath,D,Karnataka,14.6599889,74.3047846,"Ankola, KA, India",,,,,,,581314,Ankola,Ankola taluk,Karnataka,KA,India,in,0.5,1,,© OpenStreetMap contributors,Open Database License,https://www.openstreetmap.org/copyright
Dudu_NrainaRD_D (Rajasthan),Dudu,NrainaRD,D,Rajasthan,26.6811224,75.2320764,"Dudu, RJ, India",,,,,,,303008,Dudu,Dudu Tehsil,Rajasthan,RJ,India,in,0.5,1,,© OpenStreetMap contributors,Open Database License,https://www.openstreetmap.org/copyright
Phulera_NarenaRD_D (Rajasthan),Phulera,NarenaRD,D,Rajasthan,,,,,,,,,,,,,,,,,,,,,,
Renwal_ChomuRD_D (Rajasthan),Renwal,ChomuRD,D,Rajasthan,27.1597154,75.3593637,"Renwal, RJ, India",,,,,,,303603,Renwal,Kishangarh Renwal Tehsil,Rajasthan,RJ,India,in,0.5,1,,© OpenStreetMap contributors,Open Database License,https://www.openstreetmap.org/copyright
Jaleswar_NaturDPP_D (Orissa),Jaleswar,NaturDPP,D,Orissa,,,,,,,,,,,,,,,,,,,,,,
Beed_JalnaRd_D (Maharashtra),Beed,JalnaRd,D,Maharashtra,,,,,,,,,,,,,,,,,,,,,,
Georai_Bazarrd_D (Maharashtra),Georai,Bazarrd,D,Maharashtra,19.25745,75.72689,"Georai, BI, India",,,,,,BI,,Georai,Bid,Maharashtra,MH,India,in,0.5,1,,GeoNames,CC BY 4.0,https://www.geonames.org/datasources/
Shevgaon_VidyaNgr_D (Maharashtra),Shevgaon,VidyaNgr,D,Maharashtra,19.3543392,75.2222307,"Shevgaon, MH, India",,,,,,,414502,Shevgaon,Shevgaon,Maharashtra,MH,India,in,0.5,1,,© OpenStreetMap contributors,Open Database License,https://www.openstreetmap.org/copyright
Paithan_SantaNGR_D (Maharashtra),Paithan,SantaNGR,D,Maharashtra,,,,,,,,,,,,,,,,,,,,,,
CCU_DumDum_DPC (West Bengal),CCU,DumDum,DPC,West Bengal,22.627373,88.403868,"Dum Dum, PN, India",,,,,,PN,,Dum Dum,24 Parganas North,West Bengal,WB,India,in,0,,,Who's On First,CC0,https://www.whosonfirst.org/docs/licenses/
Jabalpur_Adhartal_IP (Madhya Pradesh),Jabalpur,Adhartal,IP,Madhya Pradesh,23.2081273,79.95079390792681,"Adhartal, Jabalpur, Adhartal Tahsil, India",Jabalpur,,Adhartal,,,,,Jabalpur,Adhartal Tahsil,Madhya Pradesh,MP,India,in,1,1,1,© OpenStreetMap contributors,Open Database License,https://www.openstreetmap.org/copyright
Chandigarh_Mohali (Chandigarh),Chandigarh,,Mohali,Chandigarh,30.7334421,76.7797143,"Chandigarh, CH, India",,,,,,,,Chandigarh,Chandigarh,Chandigarh,CH,India,in,1,1,,© OpenStreetMap contributors,Open Database License,https://www.openstreetmap.org/copyright
Agra_Central_D_3 (Uttar Pradesh),Agra,Central,D3,Uttar Pradesh,27.185309,78.002444,"Central library, Agra - 282002, UP, India",,,Central library,,,AG,282002,Agra,Agra,Uttar Pradesh,UP,India,in,0.9,1,0.9,© OpenStreetMap contributors,Open Database License,https://www.openstreetmap.org/copyright
Nilambur_StteHW28_D (Kerala),Nilambur,StteHW28,D,Kerala,11.2865083,76.2407387,"Nilambur, KL, India",,,,,,,679329,Nilambur,Nilambur,Kerala,KL,India,in,0.25,1,,© OpenStreetMap contributors,Open Database License,https://www.openstreetmap.org/copyright
Baharampur_Chuanpur_I (West Bengal),Baharampur,Chuanpur,I,West Bengal,24.083921250000003,88.26641411800838,"Chuanpur Colony Para, Berhampore, WB, India",,,Chuanpur Colony Para,,,,742101,Berhampore,Berhampore,West Bengal,WB,India,in,0,,,© OpenStreetMap contributors,Open Database License,https://www.openstreetmap.org/copyright
Dabhoi_Central_DPP_3 (Gujarat),Dabhoi,Central,DPP3,Gujarat,22.1336175,73.4201004,"Dabhoi, GJ, India",,,,,,,391110,Dabhoi,Dabhoi Taluka,Gujarat,GJ,India,in,0.5,1,,© OpenStreetMap contributors,Open Database License,https://www.openstreetmap.org/copyright
Kanigiri_Tiglgndi_D (Andhra Pradesh),Kanigiri,Tiglgndi,D,Andhra Pradesh,15.4064336,79.5066283,"Kanigiri, AP, India",,,,,,,523230,Kanigiri,Kanigiri,Andhra Pradesh,AP,India,in,0.5,1,,© OpenStreetMap contributors,Open Database License,https://www.openstreetmap.org/copyright
Kandukur_LICOffce_D (Andhra Pradesh),Kandukur,LICOffce,D,Andhra Pradesh,,,,,,,,,,,,,,,,,,,,,,
Warangal_HunterRd_I (Telangana),Warangal,HunterRd,I,Telangana,17.9820644,79.5970954,"Warangal, TG, India",,,,,,,506002,Warangal,Warangal mandal,Telangana,TG,India,in,0.5,1,,© OpenStreetMap contributors,Open Database License,https://www.openstreetmap.org/copyright
Khanpur_Nrsampt_D (Telangana),Khanpur,Nrsampt,D,Telangana,19.4975971,78.8105402,"Khanpur, TG, India",,,,,,,504311,Khanpur,Narnoor mandal,Telangana,TG,India,in,0.5,1,,© OpenStreetMap contributors,Open Database License,https://www.openstreetmap.org/copyright
Mahbubabad_Yellanda_D (Telangana),Mahbubabad,Yellanda,D,Telangana,17.59728,80.00206,"Mahbūbābād, WA, India",,,,,,WA,,Mahbūbābād,Warangal,Telangana,TG,India,in,0.5,1,,Who's On First,CC0,https://www.whosonfirst.org/docs/licenses/
RoopNagar_ChotiHvl_DC (Punjab),RoopNagar,ChotiHvl,DC,Punjab,30.9688367,76.526088,"Rupnagar - 140001, PB, India",,,,,,RP,140001,Rupnagar,Rupnagar Tahsil,Punjab,PB,India,in,0,0.7000000000000001,,© OpenStreetMap contributors,Open Database License,https://www.openstreetmap.org/copyright
AnandprShb_PnjPiara_D (Punjab),AnandprShb,PnjPiara,D,Punjab,,,,,,,,,,,,,,,,,,,,,,
Angamaly_CivilStn_D (Kerala),Angamaly,CivilStn,D,Kerala,10.1910284,76.3874109,"Angamaly, KL, India",,,,,,,683572,Angamaly,Aluva,Kerala,KL,India,in,0.5,1,,© OpenStreetMap contributors,Open Database License,https://www.openstreetmap.org/copyright
Chalakudy_SurbhiTh_D (Kerala),Chalakudy,SurbhiTh,D,Kerala,10.3041869,76.3371037,"Chalakudy, KL, India",,,,,,,680307,Chalakudy,Chalakkudy,Kerala,KL,India,in,0.5,1,,© OpenStreetMap contributors,Open Database License,https://www.openstreetmap.org/copyright
Irinjlkuda_Greens_D (Kerala),Irinjlkuda,Greens,D,Kerala,10.761595,76.669618,"Builtech Greens, Palakkad - 678006, KL, India",,,,,Builtech Greens,PL,678006,Palakkad,Palakkad,Kerala,KL,India,in,0,,,© OpenStreetMap contributors,Open Database License,https://www.openstreetmap.org/copyright
TalwandiSabo_Wardno3_D (Punjab),TalwandiSabo,Wardno3,D,Punjab,,,,,,,,,,,,,,,,,,,,,,
Jhunir_BhaRDDPP_D (Punjab),Jhunir,BhaRDDPP,D,Punjab,29.8038634,75.3486153,"Jhunir, PB, India",,,,,,,151506,Jhunir,Sardulgarh Tahsil,Punjab,PB,India,in,0.5,1,,© OpenStreetMap contributors,Open Database License,https://www.openstreetmap.org/copyright
Pauri_Khndyusn_D (Uttarakhand),Pauri,Khndyusn,D,Uttarakhand,30.1479882,78.7759518,"Pauri, UT, India",,,,,,,246001,Pauri,Pauri,Uttarakhand,UT,India,in,0.5,1,,© OpenStreetMap contributors,Open Database License,https://www.openstreetmap.org/copyright
Masaurhi_Blockrd_D (Bihar),Masaurhi,Blockrd,D,Bihar,25.3508773,85.0341732,"Masaurhi, BR, India",,,,,,,804452,Masaurhi,Masaurhi,Bihar,BR,India,in,0.5,1,,© OpenStreetMap contributors,Open Database License,https://www.openstreetmap.org/copyright
Jehanabad_Madarpur_D (Bihar),Jehanabad,Madarpur,D,Bihar,25.22033,84.98659,"Madarpur, Jehanabad, JH, India",,,Madarpur,Madarpur,,JH,,Jehanabad,Jehanabad,Bihar,BR,India,in,0.5,1,,Who's On First,CC0,https://www.whosonfirst.org/docs/licenses/
Rajgir_PnditNGR_D (Bihar),Rajgir,PnditNGR,D,Bihar,,,,,,,,,,,,,,,,,,,,,,
Sheohar_Ward9DPP_D (Bihar),Sheohar,Ward9DPP,D,Bihar,26.5139825,85.2929878,"Sheohar, BR, India",,,,,,,,Sheohar,Sheohar,Bihar,BR,India,in,0.5,1,,© OpenStreetMap contributors,Open Database License,https://www.openstreetmap.org/copyright
YamunaNagar_DC (Haryana),YamunaNagar,,DC,Haryana,30.1231349,77.286329,"Yamunanagar, HR, India",,,,,,,135001,Yamunanagar,Jagadhri,Haryana,HR,India,in,1,1,,© OpenStreetMap contributors,Open Database License,https://www.openstreetmap.org/copyright
PaontSahib_Gurudwar_D (Himachal Pradesh),PaontSahib,Gurudwar,D,Himachal Pradesh,31.903523,77.270865,"Himachal Pradesh, India",,,Himachal Pradesh,,,,,,,Himachal Pradesh,HP,India,in,0.25,,,Who's On First,CC0,https://www.whosonfirst.org/docs/licenses/
Morgram_Kntgorya_D (West Bengal),Morgram,Kntgorya,D,West Bengal,24.3008909,88.0324155,"Morgram, WB, India",,,,,,,742226,Morgram,Sagardighi,West Bengal,WB,India,in,0.5,1,,© OpenStreetMap contributors,Open Database License,https://www.openstreetmap.org/copyright
Rampurhat_SrifoDPP_D (West Bengal),Rampurhat,SrifoDPP,D,West Bengal,24.1763069,87.7859569,"Rampurhat, WB, India",,,,,,,731224,Rampurhat,Rampurhat - I,West Bengal,WB,India,in,0.5,1,,© OpenStreetMap contributors,Open Database License,https://www.openstreetmap.org/copyright
Ghanpur_Palakrty_D (Telangana),Ghanpur,Palakrty,D,Telangana,16.55643,78.06058,"Ghanpur, MA, India",,,,,,MA,,Ghanpur,Mahbubnagar,Telangana,TG,India,in,0.5,1,,GeoNames,CC BY 4.0,https://www.geonames.org/datasources/
Jangaon_Hanmkond_D (Telangana),Jangaon,Hanmkond,D,Telangana,17.722365,79.161365,"Jangaon, TG, India",,,,,,,,Jangaon,Warangal,Telangana,TG,India,in,0.5,1,,Who's On First,CC0,https://www.whosonfirst.org/docs/licenses/
Amalapuram_Vijdurg_D (Andhra Pradesh),Amalapuram,Vijdurg,D,Andhra Pradesh,16.577189,82.003154,"Amalapuram, EG, India",,,,,,EG,,Amalapuram,East Godavari,Andhra Pradesh,AP,India,in,0.5,1,,Who's On First,CC0,https://www.whosonfirst.org/docs/licenses/
Draksharamam_Anaipeta_D (Andhra Pradesh),Draksharamam,Anaipeta,D,Andhra Pradesh,,,,,,,,,,,,,,,,,,,,,,
Kamareddy_Devenply_I (Telangana),Kamareddy,Devenply,I,Telangana,18.3222091,78.3387118,"Kamareddy, TG, India",,,,,,,503100,Kamareddy,Kamareddy mandal,Telangana,TG,India,in,0.5,1,,© OpenStreetMap contributors,Open Database License,https://www.openstreetmap.org/copyright
Bodhan_SuryaDPP_D (Telangana),Bodhan,SuryaDPP,D,Telangana,18.6536941,77.8936802,"Nizamabad, Bodhan, TG, India",Nizamabad,,,,,,503185,Bodhan,Bodhan mandal,Telangana,TG,India,in,0.5,1,,© OpenStreetMap contributors,Open Database License,https://www.openstreetmap.org/copyright
Banswada_Menagrdn_D (Telangana),Banswada,Menagrdn,D,Telangana,18.3821084,77.8763494,"Banswada, TG, India",,,,,,,,Banswada,Banswada mandal,Telangana,TG,India,in,0.5,1,,© OpenStreetMap contributors,Open Database License,https://www.openstreetmap.org/copyright
Yellareddy_JKRoad_D (Telangana),Yellareddy,JKRoad,D,Telangana,18.194654,78.012992,"Yellareddy, TG, India",,,,,,,,Yellareddy,Nizamabad,Telangana,TG,India,in,0.5,1,,Who's On First,CC0,https://www.whosonfirst.org/docs/licenses/
Medak_Dwaraka_D (Telangana),Medak,Dwaraka,D,Telangana,18.043921,78.26233,"dwaraka, Medak - 502110, TG, India",,,dwaraka,,,ME,502110,Medak,Medak,Telangana,TG,India,in,1,1,1,© OpenStreetMap contributors,Open Database License,https://www.openstreetmap.org/copyright
Chennai_Chnglptu_DC (Tamil Nadu),Chennai,Chnglptu,DC,Tamil Nadu,13.0836939,80.270186,"Chennai, TN, India",,,,,,,600001,Chennai,Chennai,Tamil Nadu,TN,India,in,0.5,1,,© OpenStreetMap contributors,Open Database License,https://www.openstreetmap.org/copyright
Malemruvathur_Achipkam_D (Tamil Nadu),Malemruvathur,Achipkam,D,Tamil Nadu,,,,,,,,,,,,,,,,,,,,,,
Dinara_Wardno7_D (Bihar),Dinara,Wardno7,D,Bihar,25.2479461,84.059431,"Dinara, BR, India",,,,,,,802213,Dinara,Dinara,Bihar,BR,India,in,0.25,1,,© OpenStreetMap contributors,Open Database License,https://www.openstreetmap.org/copyright
Bikramgang_Dehrird_D (Bihar),Bikramgang,Dehrird,D,Bihar,,,,,,,,,,,,,,,,,,,,,,
Bengaluru_Bagaluru_D (Karnataka),Bengaluru,Bagaluru,D,Karnataka,13.121456,77.610952,"Bagaluru Cross, Kempegowda, Bangalore - 560064, KA, India",Yelahanka,,Bagaluru Cross,Kempegowda,,BN,560064,Bangalore,Bangalore,Karnataka,KA,India,in,0.5670000000000002,0.6300000000000001,0.5670000000000002,© OpenStreetMap contributors,Open Database License,https://www.openstreetmap.org/copyright
Gauribidanur_Gurukrpa_D (Karnataka),Gauribidanur,Gurukrpa,D,Karnataka,,,,,,,,,,,,,,,,,,,,,,
Amritsar_DPC (Punjab),Amritsar,,DPC,Punjab,31.6356659,74.8787496,"Amritsar, PB, India",,,,,,,143001,Amritsar,Amritsar I Tahsil,Punjab,PB,India,in,1,1,,© OpenStreetMap contributors,Open Database License,https://www.openstreetmap.org/copyright
Janakpuri (Delhi),Janakpuri,,,Delhi,28.6219272,77.0874757,"Janakpuri, West Delhi, India",,,,Janakpuri,,,110058,,West Delhi,Delhi,DL,India,in,1,1,,© OpenStreetMap contributors,Open Database License,https://www.openstreetmap.org/copyright
Phagwara_Lovely_D (Punjab),Phagwara,Lovely,D,Punjab,31.2206734,75.7696463,"Phagwara, PB, India",,,,,,,144400,Phagwara,Phagwara Tahsil,Punjab,PB,India,in,0.5,1,,© OpenStreetMap contributors,Open Database License,https://www.openstreetmap.org/copyright
Vellore_GndhiNgr_IP (Tamil Nadu),Vellore,GndhiNgr,IP,Tamil Nadu,12.9071753,79.1309695,"Vellore, TN, India",,,,,,,632012,Vellore,Vellore,Tamil Nadu,TN,India,in,0.5,1,,© OpenStreetMap contributors,Open Database License,https://www.openstreetmap.org/copyright
Arani_KrthiKyn_D (Tamil Nadu),Arani,KrthiKyn,D,Tamil Nadu,,,,,,,,,,,,,,,,,,,,,,
Polur_StationRD_D (Tamil Nadu),Polur,StationRD,D,Tamil Nadu,12.510841,79.125485,"Polur, TV, India",,,,,,TV,,Polur,Tiruvannamalai,Tamil Nadu,TN,India,in,0.5,1,,Who's On First,CC0,https://www.whosonfirst.org/docs/licenses/
Chetpet_Blmrgnst_D (Tamil Nadu),Chetpet,Blmrgnst,D,Tamil Nadu,12.50897,79.30956,"Chetpet, TV, India",,,,,,TV,,Chetpet,Tiruvannamalai,Tamil Nadu,TN,India,in,0.5,1,,GeoNames,CC BY 4.0,https://www.geonames.org/datasources/
Kusumnchi_SKRoad_D (Telangana),Kusumnchi,SKRoad,D,Telangana,18,79.5,"Telangana, WA, India",,,,,,WA,,Telangana,Warangal,Telangana,TG,India,in,0,,,Who's On First,CC0,https://www.whosonfirst.org/docs/licenses/
Gulbarga_Nehrugnj_I (Karnataka),Gulbarga,Nehrugnj,I,Karnataka,,,,,,,,,,,,,,,,,,,,,,
Chittapur_GlbrgaRD_D (Karnataka),Chittapur,GlbrgaRD,D,Karnataka,17.1211,77.087968,"Chitapur, GB, India",,,,,,GB,,Chitapur,Gulbarga,Karnataka,KA,India,in,0.5,1,,Who's On First,CC0,https://www.whosonfirst.org/docs/licenses/
Khanna_DC (Punjab),Khanna,,DC,Punjab,30.700625,76.2220763,"Khanna, PB, India",,,,,,,141401,Khanna,Khanna Tahsil,Punjab,PB,India,in,1,1,,© OpenStreetMap contributors,Open Database License,https://www.openstreetmap.org/copyright
Ghaziabad_Central_L_8 (Uttar Pradesh),Ghaziabad,Central,L8,Uttar Pradesh,28.66943345,77.47275695448502,"Chiranjeev Vihar Central Park, Ghaziabad, India",,,Chiranjeev Vihar Central Park,,,,,Ghaziabad,Ghaziabad,Uttar Pradesh,UP,India,in,0.7290000000000001,1,0.7290000000000001,© OpenStreetMap contributors,Open Database License,https://www.openstreetmap.org/copyright
Pune_Mundhawa_L (Maharashtra),Pune,Mundhawa,L,Maharashtra,18.53506115,73.92897029666277,"Mundhawa PMC School, Mundhwa Road, Mundhwa, Pune - 411036, MH, India",,,Mundhawa PMC School,Mundhwa,Mundhwa Road,,411036,Pune,Pune District,Maharashtra,MH,India,in,0.7875,1,0.7875,© OpenStreetMap contributors,Open Database License,https://www.openstreetmap.org/copyright
Satara_DC (Maharashtra),Satara,,DC,Maharashtra,20.9727004,79.4026995,"Satara, MH, India",,,,,,,,Satara,Kuhi Taluka,Maharashtra,MH,India,in,1,1,,© OpenStreetMap contributors,Open Database License,https://www.openstreetmap.org/copyright
Khandala_Satara_D (Maharashtra),Khandala,Satara,D,Maharashtra,18.0583963,74.0148194,"Khandala, MH, India",,,,,,,412802,Khandala,Khandala,Maharashtra,MH,India,in,0.5,1,,© OpenStreetMap contributors,Open Database License,https://www.openstreetmap.org/copyright
Konch_Central_D_2 (Uttar Pradesh),Konch,Central,D2,Uttar Pradesh,25.9952332,79.1483252,"Konch, UP, India",,,,,,,285205,Konch,Konch,Uttar Pradesh,UP,India,in,0.5,1,,© OpenStreetMap contributors,Open Database License,https://www.openstreetmap.org/copyright
Rath_Mughlpra_D (Uttar Pradesh),Rath,Mughlpra,D,Uttar Pradesh,25.5936555,79.5665356,"Rath, UP, India",,,,,,,210431,Rath,Hamirpur,Uttar Pradesh,UP,India,in,0.5,1,,© OpenStreetMap contributors,Open Database License,https://www.openstreetmap.org/copyright
Delhi_Shahdara (Delhi),Delhi,,Shahdara,Delhi,28.6138954,77.2090057,"New Delhi, DL, India",,,,,,,,New Delhi,,Delhi,DL,India,in,0.9,0.9,,© OpenStreetMap contributors,Open Database License,https://www.openstreetmap.org/copyright
Mumbai_MhimWest_C (Maharashtra),Mumbai,MhimWest,C,Maharashtra,19.054999,72.8692035,"Mumbai, MH, India",,,,,,,,Mumbai,,Maharashtra,MH,India,in,0.5,1,,© OpenStreetMap contributors,Open Database License,https://www.openstreetmap.org/copyright
Rewari_YuktiDPP_D (Haryana),Rewari,YuktiDPP,D,Haryana,28.1956468,76.6165179,"Rewari, HR, India",,,,,,,123110,Rewari,Rewari,Haryana,HR,India,in,0.5,1,,© OpenStreetMap contributors,Open Database License,https://www.openstreetmap.org/copyright
Delhi_Lajpat_IP (Delhi),Delhi,Lajpat,IP,Delhi,28.65742795,77.23582466695026,"Lajpat Rai Market, Old Delhi, - 110006, DL, India",,,Lajpat Rai Market,Old Delhi,,,110006,,Kotwali Tehsil,Delhi,DL,India,in,0.7290000000000001,0.9,0.7290000000000001,© OpenStreetMap contributors,Open Database License,https://www.openstreetmap.org/copyright
Delhi_Bhogal (Delhi),Delhi,,Bhogal,Delhi,28.6138954,77.2090057,"New Delhi, DL, India",,,,,,,,New Delhi,,Delhi,DL,India,in,0.9,0.9,,© OpenStreetMap contributors,Open Database License,https://www.openstreetmap.org/copyright
Naraingarh_Ward2DPP_D (Haryana),Naraingarh,Ward2DPP,D,Haryana,30.44392,77.10545,"Naraingarh, AM, India",,,,,,AM,,Naraingarh,Ambala,Haryana,HR,India,in,0.5,1,,GeoNames,CC BY 4.0,https://www.geonames.org/datasources/
Lalru_OnkarDPP_D (Punjab),Lalru,OnkarDPP,D,Punjab,30.4916173,76.7984247,"Lalru, PB, India",,,,,,,140501,Lalru,Dera Bassi Tahsil,Punjab,PB,India,in,0.5,1,,© OpenStreetMap contributors,Open Database License,https://www.openstreetmap.org/copyright
Hospet (Karnataka),Hospet,,,Karnataka,15.266493,76.3872297,"Hosapete, KA, India",,,,,,,583200,Hosapete,Hosapete taluk,Karnataka,KA,India,in,0.675,0.675,,© OpenStreetMap contributors,Open Database License,https://www.openstreetmap.org/copyright
Gangavathi_PhrmPlza_D (Karnataka),Gangavathi,PhrmPlza,D,Karnataka,15.4261076,76.5306714,"Gangavathi, KA, India",,,,,,,583227,Gangavathi,Gangavati taluku,Karnataka,KA,India,in,0.5,1,,© OpenStreetMap contributors,Open Database License,https://www.openstreetmap.org/copyright
Koppal_Banikatt_D (Karnataka),Koppal,Banikatt,D,Karnataka,,,,,,,,,,,,,,,,,,,,,,
Mumbai_Kalyan (Maharashtra),Mumbai,,Kalyan,Maharashtra,19.054999,72.8692035,"Mumbai, MH, India",,,,,,,,Mumbai,,Maharashtra,MH,India,in,1,1,,© OpenStreetMap contributors,Open Database License,https://www.openstreetmap.org/copyright
Motihari_RajaBzr_D (Bihar),Motihari,RajaBzr,D,Bihar,26.6506888,84.9114654,"Motihari, BR, India",,,,,,,,Motihari,Motihari,Bihar,BR,India,in,0.5,1,,© OpenStreetMap contributors,Open Database License,https://www.openstreetmap.org/copyright
Raxaul_KairiyaT_D (Bihar),Raxaul,KairiyaT,D,Bihar,26.9833256,84.8523069,"Raxaul, BR, India",,,,,,,845305,Raxaul,Raxaul,Bihar,BR,India,in,0.5,1,,© OpenStreetMap contributors,Open Database License,https://www.openstreetmap.org/copyright
Ramagundam_Pdmavati_D (Telangana),Ramagundam,Pdmavati,D,Telangana,18.7615156,79.4787848,"Ramagundam, TG, India",,,,,,,505208,Ramagundam,Ramagundam mandal,Telangana,TG,India,in,0.5,1,,© OpenStreetMap contributors,Open Database License,https://www.openstreetmap.org/copyright
Pupri_SngihiRD_D (Bihar),Pupri,SngihiRD,D,Bihar,26.470735,85.7017232,"Pupri, BR, India",,,,,,,843320,Pupri,Pupri,Bihar,BR,India,in,0.5,1,,© OpenStreetMap contributors,Open Database License,https://www.openstreetmap.org/copyright
Bardhaman_Bankura_D (West Bengal),Bardhaman,Bankura,D,West Bengal,23.2495714,87.8681751,"Bardhaman, WB, India",,,,,,,,Bardhaman,Burdwan - I,West Bengal,WB,India,in,0.5,1,,© OpenStreetMap contributors,Open Database License,https://www.openstreetmap.org/copyright
Rupnarayanpur_Salanpur_D (West Bengal),Rupnarayanpur,Salanpur,D,West Bengal,23.814885,86.886457,"Rupnarayanpur, Chittaranjan, BR, India",,,Rupnarayanpur,Rupnarayanpur,,BR,,Chittaranjan,Bardhaman,West Bengal,WB,India,in,0.5,1,,Who's On First,CC0,https://www.whosonfirst.org/docs/licenses/
Murbad_SnkunDPP_D (Maharashtra),Murbad,SnkunDPP,D,Maharashtra,19.257118,73.3907493,"Murbad, MH, India",,,,,,,421401,Murbad,Murbad Taluka,Maharashtra,MH,India,in,0.5,1,,© OpenStreetMap contributors,Open Database License,https://www.openstreetmap.org/copyright
Asangaon_Shahapur_D (Maharashtra),Asangaon,Shahapur,D,Maharashtra,19.4409122,73.3065183,"Asangaon, Shahapur, MH, India",,,,Asangaon,,,421601,Shahapur,Shahapur Taluka,Maharashtra,MH,India,in,0.5,1,,© OpenStreetMap contributors,Open Database License,https://www.openstreetmap.org/copyright
Bangalore_East_I_20 (Karnataka),Bangalore,East,I20,Karnataka,13.023425,77.550172,"E, HMT Ward, Bangalore - 560022, KA, India",Rajarajeswari Nagar,,E,HMT Ward,,BN,560022,Bangalore,Bangalore,Karnataka,KA,India,in,1,1,1,© OpenStreetMap contributors,Open Database License,https://www.openstreetmap.org/copyright
Mungaoli_AshkngRd_D (Madhya Pradesh),Mungaoli,AshkngRd,D,Madhya Pradesh,24.408182,78.095857,"Mungaoli, AN, India",,,,,,AN,,Mungaoli,Ashoknagar,Madhya Pradesh,MP,India,in,0.5,1,,Who's On First,CC0,https://www.whosonfirst.org/docs/licenses/
Bina_Srvdycwk_D (Madhya Pradesh),Bina,Srvdycwk,D,Madhya Pradesh,23.3617929,79.0765935,"Bina, MP, India",,,,,,,,Bina,Deori Tahsil,Madhya Pradesh,MP,India,in,0.5,1,,© OpenStreetMap contributors,Open Database License,https://www.openstreetmap.org/copyright
Khurai_Talaiya_D (Madhya Pradesh),Khurai,Talaiya,D,Madhya Pradesh,24.042342,78.325712,"Talaiya Mandir, Khurai - 470117, MP, India",,,Talaiya Mandir,,,SG,470117,Khurai,Sagar,Madhya Pradesh,MP,India,in,0.9,1,0.9,© OpenStreetMap contributors,Open Database License,https://www.openstreetmap.org/copyright
Kankavali_NrdawDPP_D (Maharashtra),Kankavali,NrdawDPP,D,Maharashtra,16.2659486,73.7100588,"Kankavali, MH, India",,,,,,,416602,Kankavali,Kankavli Taluka,Maharashtra,MH,India,in,0.5,1,,© OpenStreetMap contributors,Open Database License,https://www.openstreetmap.org/copyright
RaisingNgr_BisnolDPP_D (Rajasthan),RaisingNgr,BisnolDPP,D,Rajasthan,,,,,,,,,,,,,,,,,,,,,,
Manjhaul_Purbari_D (Bihar),Manjhaul,Purbari,D,Bihar,25.5634067,86.1287887,"Manjhaul, BR, India",,,,,,,848501,Manjhaul,Cheria Bariarpur,Bihar,BR,India,in,0.5,1,,© OpenStreetMap contributors,Open Database License,https://www.openstreetmap.org/copyright
Jaipur_VarunCly_DC (Rajasthan),Jaipur,VarunCly,DC,Rajasthan,26.9154576,75.8189817,"Jaipur, RJ, India",,,,,,,302001,Jaipur,Jaipur Tehsil,Rajasthan,RJ,India,in,0.5,1,,© OpenStreetMap contributors,Open Database License,https://www.openstreetmap.org/copyright
Bijnor_NaginaRd_D (Uttar Pradesh),Bijnor,NaginaRd,D,Uttar Pradesh,29.3695221,78.1371435,"Bijnor, UP, India",,,,,,,246700,Bijnor,Bijnor,Uttar Pradesh,UP,India,in,0.5,1,,© OpenStreetMap contributors,Open Database License,https://www.openstreetmap.org/copyright
Najibabad_KotdwrRD_D (Uttar Pradesh),Najibabad,KotdwrRD,D,Uttar Pradesh,29.6131324,78.3430066,"Najibabad, UP, India",,,,,,,246763,Najibabad,Najibabad,Uttar Pradesh,UP,India,in,0.5,1,,© OpenStreetMap contributors,Open Database License,https://www.openstreetmap.org/copyright
Dhampur_NaginaRD_D (Uttar Pradesh),Dhampur,NaginaRD,D,Uttar Pradesh,29.3076322,78.5096181,"Dhampur, UP, India",,,,,,,246761,Dhampur,Dhampur,Uttar Pradesh,UP,India,in,0.5,1,,© OpenStreetMap contributors,Open Database License,https://www.openstreetmap.org/copyright
Kanth_Dayanand_D (Uttar Pradesh),Kanth,Dayanand,D,Uttar Pradesh,29.0594576,78.6290448,"Kanth, UP, India",,,,,,,242225,Kanth,Amroha,Uttar Pradesh,UP,India,in,0.5,1,,© OpenStreetMap contributors,Open Database License,https://www.openstreetmap.org/copyright
Thakurdwara_Fathuluh_D (Uttar Pradesh),Thakurdwara,Fathuluh,D,Uttar Pradesh,29.1921593,78.8618197,"Thakurdwara, UP, India",,,,,,,244600,Thakurdwara,Thakurdwara,Uttar Pradesh,UP,India,in,0.5,1,,© OpenStreetMap contributors,Open Database License,https://www.openstreetmap.org/copyright
BiharSarif_Soghra_D (Bihar),BiharSarif,Soghra,D,Bihar,25.208165,85.52346,"Soghra High School, Bihar Sharif - 803101, BR, India",,,,,Soghra High School,NL,803101,Bihar Sharif,Nalanda,Bihar,BR,India,in,0.7363636363636364,0.9090909090909091,0.7363636363636364,© OpenStreetMap contributors,Open Database License,https://www.openstreetmap.org/copyright
Nawada_Central_DPP_2 (Bihar),Nawada,Central,DPP2,Bihar,26.499803,89.309014,"Central School Colony, Purba Kathalbari, WB, India",,,Central School Colony,Central School Colony,,,,Purba Kathalbari,Koch Bihar,West Bengal,WB,India,in,0,,,Who's On First,CC0,https://www.whosonfirst.org/docs/licenses/
Jayamkondan_Chithbrm_D (Tamil Nadu),Jayamkondan,Chithbrm,D,Tamil Nadu,10.072396,78.917238,"Jayamkondan, TN, India",,,,,,,,Jayamkondan,Sivaganga,Tamil Nadu,TN,India,in,0.5,1,,Who's On First,CC0,https://www.whosonfirst.org/docs/licenses/
Srikakulam_Kuslpram_I (Andhra Pradesh),Srikakulam,Kuslpram,I,Andhra Pradesh,,,,,,,,,,,,,,,,,,,,,,
Tiruchi (Tamil Nadu),Tiruchi,,,Tamil Nadu,10.7539393,78.6674894,"Tiruchi Semicircular Ring Road, Trichy Zone IV, Sattanur - 620021, TN, India",Trichy Corporation Limits,,Tiruchi Semicircular Ring Road,Trichy Zone IV,Tiruchi Semicircular Ring Road,,620021,Sattanur,Srirangam,Tamil Nadu,TN,India,in,0.5714285714285714,0.5714285714285714,,© OpenStreetMap contributors,Open Database License,https://www.openstreetmap.org/copyright
Pattukotai_anthniyr_D (Tamil Nadu),Pattukotai,anthniyr,D,Tamil Nadu,13.0261,80.177228,"Pattukotai mess, Ward 154, Chennai - 600089, TN, India",Valasaravakkam,,Pattukotai mess,Ward 154,,CH,600089,Chennai,Chennai,Tamil Nadu,TN,India,in,0,0.9,,© OpenStreetMap contributors,Open Database License,https://www.openstreetmap.org/copyright
Peravurani_SH71_D (Tamil Nadu),Peravurani,SH71,D,Tamil Nadu,10.28721,79.2008579,"Peravurani, TN, India",,,,,,,614804,Peravurani,Peravurani,Tamil Nadu,TN,India,in,0.5,1,,© OpenStreetMap contributors,Open Database License,https://www.openstreetmap.org/copyright
Aranthangi_HsptlRod_D (Tamil Nadu),Aranthangi,HsptlRod,D,Tamil Nadu,10.1686451,78.9927909,"Aranthangi, TN, India",,,,,,,614616,Aranthangi,Aranthangi taluk,Tamil Nadu,TN,India,in,0.5,1,,© OpenStreetMap contributors,Open Database License,https://www.openstreetmap.org/copyright
Karaikudi_Sbrmnprm_D (Tamil Nadu),Karaikudi,Sbrmnprm,D,Tamil Nadu,10.0728444,78.7795194,"Karaikudi, TN, India",,,,,,,623001,Karaikudi,Karaikkudi,Tamil Nadu,TN,India,in,0.5,1,,© OpenStreetMap contributors,Open Database License,https://www.openstreetmap.org/copyright
Ponnamaravathi_Puduvalvu_D (Tamil Nadu),Ponnamaravathi,Puduvalvu,D,Tamil Nadu,10.280006,78.536848,"Ponnamaravathi, TN, India",,,,,,,,Ponnamaravathi,Pudukkottai,Tamil Nadu,TN,India,in,0.5,1,,Who's On First,CC0,https://www.whosonfirst.org/docs/licenses/
Khed_Mahad_D (Maharashtra),Khed,Mahad,D,Maharashtra,18.082609,73.436477,"Rural Hospital, Mahad, Mahad - 402307, MH, India",,,"Rural Hospital, Mahad",,,RG,402307,Mahad,Raigarh,Maharashtra,MH,India,in,0,,,© OpenStreetMap contributors,Open Database License,https://www.openstreetmap.org/copyright
SrinagarUK_Srikot_D (Uttarakhand),SrinagarUK,Srikot,D,Uttarakhand,30.467376,78.634219,"Srikot, TG, India",,,,,,TG,,Srikot,Tehri Garhwal,Uttarakhand,UT,India,in,0.125,0.25,,Who's On First,CC0,https://www.whosonfirst.org/docs/licenses/
Karnaprayag_Umalodge_D (Uttarakhand),Karnaprayag,Umalodge,D,Uttarakhand,30.259647,79.2170691,"Karnaprayag, UT, India",,,,,,,246444,Karnaprayag,Karnaprayag,Uttarakhand,UT,India,in,0.5,1,,© OpenStreetMap contributors,Open Database License,https://www.openstreetmap.org/copyright
Chamoli_CGRoad_D (Uttarakhand),Chamoli,CGRoad,D,Uttarakhand,30.402708,79.333028,"Chamoli, CL, India",,,,,,CL,,Chamoli,Chamoli,Uttarakhand,UT,India,in,0.5,1,,Who's On First,CC0,https://www.whosonfirst.org/docs/licenses/
Mysore_Yadvgiri_IP (Karnataka),Mysore,Yadvgiri,IP,Karnataka,12.3051828,76.6553609,"Mysuru, KA, India",,,,,,,570001,Mysuru,Mysuru taluk,Karnataka,KA,India,in,0.5,1,,© OpenStreetMap contributors,Open Database License,https://www.openstreetmap.org/copyright
Hunsur_RatnaDPP_D (Karnataka),Hunsur,RatnaDPP,D,Karnataka,12.3035086,76.2928095,"Hunsur, KA, India",,,,,,,571105,Hunsur,Hunasuru taluk,Karnataka,KA,India,in,0.5,1,,© OpenStreetMap contributors,Open Database License,https://www.openstreetmap.org/copyright
Gonikoppal_Thomas_D (Karnataka),Gonikoppal,Thomas,D,Karnataka,12.960452,77.636942,"Dr Thomas, Domlur, Bangalore - 560071, KA, India",East Bangalore,,Dr Thomas,Domlur,,BN,560071,Bangalore,Bangalore,Karnataka,KA,India,in,0,,,© OpenStreetMap contributors,Open Database License,https://www.openstreetmap.org/copyright
HDKote_BegurRD_D (Karnataka),HDKote,BegurRD,D,Karnataka,,,,,,,,,,,,,,,,,,,,,,
Hyderabad_Uppal_L (Telangana),Hyderabad,Uppal,L,Telangana,17.4025091,78.5612562,"Uppal, Hyderabad, TG, India",Greater Hyderabad Municipal Corporation East Zone,,,Uppal,,,500039,Hyderabad,Uppal mandal,Telangana,TG,India,in,0.5,1,,© OpenStreetMap contributors,Open Database License,https://www.openstreetmap.org/copyright
Noida_Sector63_L (Uttar Pradesh),Noida,Sector63,L,Uttar Pradesh,28.5706333,77.3272147,"Dadri (Noida), UP, India",,,,,,,201301,Noida,Gautam Buddha Nagar,Uttar Pradesh,UP,India,in,0.5,1,,© OpenStreetMap contributors,Open Database License,https://www.openstreetmap.org/copyright
Jasai_JNPT_D (Maharashtra),Jasai,JNPT,D,Maharashtra,18.9416676,73.0323323,"JNPT Road, Jasai, Jasai -, MH, India",Chirle,,JNPT Road,Jasai,JNPT Road,,,Jasai,Uran Taluka,Maharashtra,MH,India,in,1,1,1,© OpenStreetMap contributors,Open Database License,https://www.openstreetmap.org/copyright
Koraput_GhtimDPP_D (Orissa),Koraput,GhtimDPP,D,Orissa,,,,,,,,,,,,,,,,,,,,,,
Jeypore_Kelasahi_D (Orissa),Jeypore,Kelasahi,D,Orissa,,,,,,,,,,,,,,,,,,,,,,
Tirupur_Koliplm_I (Tamil Nadu),Tirupur,Koliplm,I,Tamil Nadu,11.088007,77.346995,"Ars Hospitals - Tirupur, Tiruppur - 641604, TN, India",,,Ars Hospitals - Tirupur,,,TP,641604,Tiruppur,Tiruppur,Tamil Nadu,TN,India,in,0,1,,© OpenStreetMap contributors,Open Database License,https://www.openstreetmap.org/copyright
Shrirampur_DavkharRd_D (Maharashtra),Shrirampur,DavkharRd,D,Maharashtra,19.618081,74.659651,"Shrirampur, AH, India",,,,,,AH,,Shrirampur,Ahmednagar,Maharashtra,MH,India,in,0.5,1,,Who's On First,CC0,https://www.whosonfirst.org/docs/licenses/
Shirdi_SaiBansi_D (Maharashtra),Shirdi,SaiBansi,D,Maharashtra,,,,,,,,,,,,,,,,,,,,,,
Kopargaon_NkshtrPz_D (Maharashtra),Kopargaon,NkshtrPz,D,Maharashtra,19.885,74.4762,"Kopargaon, MH, India",,,,,,,423601,Kopargaon,Kopargaon,Maharashtra,MH,India,in,0.5,1,,© OpenStreetMap contributors,Open Database License,https://www.openstreetmap.org/copyright
Vaijiapur_YeolaRD_D (Maharashtra),Vaijiapur,YeolaRD,D,Maharashtra,,,,,,,,,,,,,,,,,,,,,,
Kotdwara_Nzbadrd_D (Uttarakhand),Kotdwara,Nzbadrd,D,Uttarakhand,29.74537,78.506032,"Kotdwara, UT, India",,,,,,,,Kotdwara,Pauri Garhwal,Uttarakhand,UT,India,in,0.5,1,,Who's On First,CC0,https://www.whosonfirst.org/docs/licenses/
Barjora_Central_DPP_1 (West Bengal),Barjora,Central,DPP1,West Bengal,23.4258934,87.289849,"Barjora, WB, India",,,,,,,722202,Barjora,Barjora,West Bengal,WB,India,in,0.5,1,,© OpenStreetMap contributors,Open Database License,https://www.openstreetmap.org/copyright
Bankura_KeranDPP_D (West Bengal),Bankura,KeranDPP,D,West Bengal,23.235601,87.0660229,"Bankura, WB, India",,,,,,,722101,Bankura,Bankura - I,West Bengal,WB,India,in,0.5,1,,© OpenStreetMap contributors,Open Database License,https://www.openstreetmap.org/copyright
Hiriyur_TahurDPP_D (Karnataka),Hiriyur,TahurDPP,D,Karnataka,,,,,,,,,,,,,,,,,,,,,,
Chomu_ShsmlDPP_D (Rajasthan),Chomu,ShsmlDPP,D,Rajasthan,27.168598,75.723179,"Chomu, RJ, India",,,,,,,,Chomu,Jaipur,Rajasthan,RJ,India,in,0.5,1,,Who's On First,CC0,https://www.whosonfirst.org/docs/licenses/
Reengus_Shop2DPP_D (Rajasthan),Reengus,Shop2DPP,D,Rajasthan,27.43553,75.52656,"Reengus, SK, India",,,,,,SK,,Reengus,Sikar,Rajasthan,RJ,India,in,0.5,1,,GeoNames,CC BY 4.0,https://www.geonames.org/datasources/
Sikar_FatehpRd_I (Rajasthan),Sikar,FatehpRd,I,Rajasthan,27.6091864,75.1395503,"Sikar, RJ, India",,,,,,,332001,Sikar,Sikar Tehsil,Rajasthan,RJ,India,in,0.5,1,,© OpenStreetMap contributors,Open Database License,https://www.openstreetmap.org/copyright
Bikaner_ITICollg_L (Rajasthan),Bikaner,ITICollg,L,Rajasthan,28.0159286,73.3171367,"Bikaner, RJ, India",,,,,,,334001,Bikaner,Bikaner Tehsil,Rajasthan,RJ,India,in,0.5,1,,© OpenStreetMap contributors,Open Database License,https://www.openstreetmap.org/copyright
Didwana_KatlaDPP_D (Rajasthan),Didwana,KatlaDPP,D,Rajasthan,,,,,,,,,,,,,,,,,,,,,,
Sujangarh_LdnunDPP_D (Rajasthan),Sujangarh,LdnunDPP,D,Rajasthan,27.7018278,74.468707,"Sujangarh, RJ, India",,,,,,,331507,Sujangarh,Sujangarh Tehsil,Rajasthan,RJ,India,in,0.5,1,,© OpenStreetMap contributors,Open Database License,https://www.openstreetmap.org/copyright
Bhadrak_Central_I_2 (Orissa),Bhadrak,Central,I2,Orissa,21.063298,86.505182,"Bhadrak, BH, India",,,,,,BH,,Bhadrak,Bhadrak,Odisha,OR,India,in,0,,,Who's On First,CC0,https://www.whosonfirst.org/docs/licenses/
Kendujhar_Sirjudin_D (Orissa),Kendujhar,Sirjudin,D,Orissa,,,,,,,,,,,,,,,,,,,,,,
Karanjia_Sarubali_D (Orissa),Karanjia,Sarubali,D,Orissa,21.92407,85.86754,"Sarubāli, MY, India",,,,,,MY,,Sarubāli,Mayurbhanj,Odisha,OR,India,in,0,,,GeoNames,CC BY 4.0,https://www.geonames.org/datasources/
Paota_SmClyDPP_D (Rajasthan),Paota,SmClyDPP,D,Rajasthan,26.604081,76.904451,"Paota, RJ, India",,,,,,,,Paota,Sawai Madhopur,Rajasthan,RJ,India,in,0.5,1,,Who's On First,CC0,https://www.whosonfirst.org/docs/licenses/
Vizag_Gajuwaka (Andhra Pradesh),Vizag,,Gajuwaka,Andhra Pradesh,17.717661,83.329888,"Love Vizag, Visakhapatnam - 530001, AP, India",,,Love Vizag,,,VS,530001,Visakhapatnam,Visakhapatnam,Andhra Pradesh,AP,India,in,0.9,0.9,,© OpenStreetMap contributors,Open Database License,https://www.openstreetmap.org/copyright
Chodavaram_BaljiDPP_D (Andhra Pradesh),Chodavaram,BaljiDPP,D,Andhra Pradesh,,,,,,,,,,,,,,,,,,,,,,
Golaghat_BaruaRd_D (Assam),Golaghat,BaruaRd,D,Assam,26.5108262,93.9743686,"Golaghat, AS, India",,,,,,,785621,Golaghat,Golaghat,Assam,AS,India,in,0.5,1,,© OpenStreetMap contributors,Open Database License,https://www.openstreetmap.org/copyright
Sivasagar_Babupaty_D (Assam),Sivasagar,Babupaty,D,Assam,26.9834936,94.6394226,"Sivasagar, AS, India",,,,,,,785600,Sivasagar,Sibsagar,Assam,AS,India,in,0.5,1,,© OpenStreetMap contributors,Open Database License,https://www.openstreetmap.org/copyright
Varanasi_MahmurGj_IP (Uttar Pradesh),Varanasi,MahmurGj,IP,Uttar Pradesh,25.3356491,83.0076292,"Varanasi, UP, India",,,,,,,221001,Varanasi,Sadar,Uttar Pradesh,UP,India,in,0.5,1,,© OpenStreetMap contributors,Open Database License,https://www.openstreetmap.org/copyright
Warangal_Central_D_2 (Telangana),Warangal,Central,D2,Telangana,17.984412,79.530181,"Central Library, NITW, Kazipet - 506004, TG, India",,,"Central Library, NITW",,,WA,506004,Kazipet,Warangal,Telangana,TG,India,in,0.81,1,0.81,© OpenStreetMap contributors,Open Database License,https://www.openstreetmap.org/copyright
Husnabad_Greenmkt_D (Telangana),Husnabad,Greenmkt,D,Telangana,18.128134,79.209404,"Husnabad, TG, India",,,,,,,,Husnabad,Karimnagar,Telangana,TG,India,in,0.5,1,,Who's On First,CC0,https://www.whosonfirst.org/docs/licenses/
Jammikunta_ConduDPP_D (Telangana),Jammikunta,ConduDPP,D,Telangana,,,,,,,,,,,,,,,,,,,,,,
Hyderabad_Tolichwk_L (Telangana),Hyderabad,Tolichwk,L,Telangana,,,,,,,,,,,,,,,,,,,,,,
Thirthahalli_NadthiCx_D (Karnataka),Thirthahalli,NadthiCx,D,Karnataka,,,,,,,,,,,,,,,,,,,,,,
Koppa_Sangetha_D (Karnataka),Koppa,Sangetha,D,Karnataka,,,,,,,,,,,,,,,,,,,,,,
Kanti_Central_DPP_2 (Bihar),Kanti,Central,DPP2,Bihar,26.2145449,85.2981785,"Kanti, BR, India",,,,,,,843109,Kanti,Kanti,Bihar,BR,India,in,0.5,1,,© OpenStreetMap contributors,Open Database License,https://www.openstreetmap.org/copyright
Saraiya_Wardno4_D (Bihar),Saraiya,Wardno4,D,Bihar,26.0351042,85.1493323,"Saraiya, BR, India",,,,,,,843141,Saraiya,Saraiya,Bihar,BR,India,in,0.25,1,,© OpenStreetMap contributors,Open Database License,https://www.openstreetmap.org/copyright
Vinukonda_Kothapet_D (Andhra Pradesh),Vinukonda,Kothapet,D,Andhra Pradesh,16.0522252,79.7421271,"Vinukonda, AP, India",,,,,,,522647,Vinukonda,Vinukonda,Andhra Pradesh,AP,India,in,0.5,1,,© OpenStreetMap contributors,Open Database License,https://www.openstreetmap.org/copyright
Banka_Wardno6_D (Bihar),Banka,Wardno6,D,Bihar,24.8810826,86.9197693,"Banka, BR, India",,,,,,,,Banka,Banka,Bihar,BR,India,in,0.25,1,,© OpenStreetMap contributors,Open Database License,https://www.openstreetmap.org/copyright
Bhagalpur_Pbroad_DC (Bihar),Bhagalpur,Pbroad,DC,Bihar,25.2494829,86.9828131,"Bhagalpur, BR, India",,,,,,,812002,Bhagalpur,Jagdishpur,Bihar,BR,India,in,0.5,1,,© OpenStreetMap contributors,Open Database License,https://www.openstreetmap.org/copyright
Kadthal_GndhiDPP_D (Telangana),Kadthal,GndhiDPP,D,Telangana,16.983873,78.500309,"Kadthal, TG, India",,,,,,,,Kadthal,Mahbubnagar,Telangana,TG,India,in,0.5,1,,Who's On First,CC0,https://www.whosonfirst.org/docs/licenses/
Kalwakurthy_VidyaNGR_D (Telangana),Kalwakurthy,VidyaNGR,D,Telangana,16.6721316,78.4880729,"Kalwakurthy, TG, India",,,,,,,509234,Kalwakurthy,Kalwakurthy mandal,Telangana,TG,India,in,0.5,1,,© OpenStreetMap contributors,Open Database License,https://www.openstreetmap.org/copyright
Devarakonda_DindiRD_D (Telangana),Devarakonda,DindiRD,D,Telangana,16.6931795,78.9147252,"Devarakonda, TG, India",,,,,,,508248,Devarakonda,Devarakonda mandal,Telangana,TG,India,in,0.5,1,,© OpenStreetMap contributors,Open Database License,https://www.openstreetmap.org/copyright
Haliya_PeroorRD_D (Telangana),Haliya,PeroorRD,D,Telangana,16.780157,79.32359,"Haliya, Kothapalle - 508377, TG, India",,,Haliya,,,NA,508377,Kothapalle,Nalgonda,Telangana,TG,India,in,0,1,,© OpenStreetMap contributors,Open Database License,https://www.openstreetmap.org/copyright
Bengaluru_Kadugodi_D (Karnataka),Bengaluru,Kadugodi,D,Karnataka,13.0044493,77.7569686,"Belathuru, Kadugodi Main Road, Kadugodi, Belthur - 560067, KA, India",,,Belathuru,Kadugodi,Kadugodi Main Road,,560067,Belthur,Bangalore East,Karnataka,KA,India,in,0.6,0.6666666666666666,0.6,© OpenStreetMap contributors,Open Database License,https://www.openstreetmap.org/copyright
Hoskote_DC (Karnataka),Hoskote,,DC,Karnataka,13.073014,77.7921381,"Hoskote, KA, India",,,,,,,562114,Hoskote,Hosakote taluk,Karnataka,KA,India,in,1,1,,© OpenStreetMap contributors,Open Database License,https://www.openstreetmap.org/copyright
Nalgonda_HydRoad_DC (Telangana),Nalgonda,HydRoad,DC,Telangana,18.53409,78.94325,"Nalgonda, Thadagonda, KA, India",,,Nalgonda,Nalgonda,,KA,,Thadagonda,Karimnagar,Telangana,TG,India,in,0.5,1,,Who's On First,CC0,https://www.whosonfirst.org/docs/licenses/
Pune_North_D_3 (Maharashtra),Pune,North,D3,Maharashtra,18.5392705,73.8998444,"North Main Road, Ghorpuri, Pune - 411037, MH, India",,,North Main Road,Ghorpuri,North Main Road,,411037,Pune,Pune District,Maharashtra,MH,India,in,0.9,1,0.9,© OpenStreetMap contributors,Open Database License,https://www.openstreetmap.org/copyright
Sindagi_KalyanNg_D (Karnataka),Sindagi,KalyanNg,D,Karnataka,16.900761,76.246931,"Sindagi Bypass, - 586128, KA, India",,,,,Sindagi Bypass,BJ,586128,,Bijapur,Karnataka,KA,India,in,0,,,© OpenStreetMap contributors,Open Database License,https://www.openstreetmap.org/copyright
Indi_SindgiRD_D (Karnataka),Indi,SindgiRD,D,Karnataka,17.1744599,75.9553764,"Indi, KA, India",,,,,,,586200,Indi,Indi taluku,Karnataka,KA,India,in,0.5,1,,© OpenStreetMap contributors,Open Database License,https://www.openstreetmap.org/copyright
Aland_RazaviRd_D (Karnataka),Aland,RazaviRd,D,Karnataka,17.564867,76.565499,"Aland, GB, India",,,,,,GB,,Aland,Gulbarga,Karnataka,KA,India,in,0.5,1,,Who's On First,CC0,https://www.whosonfirst.org/docs/licenses/
Katihar_Central_D_2 (Bihar),Katihar,Central,D2,Bihar,25.5433817,87.5690417,"Katihar, BR, India",,,,,,,854101,Katihar,Katihar,Bihar,BR,India,in,0.5,1,,© OpenStreetMap contributors,Open Database License,https://www.openstreetmap.org/copyright
Gudivada_GvrCompx_D (Andhra Pradesh),Gudivada,GvrCompx,D,Andhra Pradesh,16.4329,81.01909,"Gudivada, KR, India",,,,,,KR,,Gudivada,Krishna,Andhra Pradesh,AP,India,in,0.5,1,,GeoNames,CC BY 4.0,https://www.geonames.org/datasources/
Lucknow_Hub (Uttar Pradesh),Lucknow,,Hub,Uttar Pradesh,26.8381,80.9346001,"Lucknow, UP, India",,,,,,,226027,Lucknow,Lucknow,Uttar Pradesh,UP,India,in,1,1,,© OpenStreetMap contributors,Open Database License,https://www.openstreetmap.org/copyright
Sandur_WrdN1DPP_D (Karnataka),Sandur,WrdN1DPP,D,Karnataka,15.08613,76.54692,"Sandūr, BL, India",,,,,,BL,,Sandūr,Bellary,Karnataka,KA,India,in,0.5,1,,GeoNames,CC BY 4.0,https://www.geonames.org/datasources/
Fatehpur_Kotwali_D (Uttar Pradesh),Fatehpur,Kotwali,D,Uttar Pradesh,,,,,,,,,,,,,,,,,,,,,,
Banda_GayatriN_D (Uttar Pradesh),Banda,GayatriN,D,Uttar Pradesh,,,,,,,,,,,,,,,,,,,,,,
Mahoba_Mlkpura_D (Uttar Pradesh),Mahoba,Mlkpura,D,Uttar Pradesh,25.2886851,79.8792071,"Mahoba, UP, India",,,,,,,210427,Mahoba,Mahoba,Uttar Pradesh,UP,India,in,0.5,1,,© OpenStreetMap contributors,Open Database License,https://www.openstreetmap.org/copyright
Ooty_Davisdle_D (Tamil Nadu),Ooty,Davisdle,D,Tamil Nadu,,,,,,,,,,,,,,,,,,,,,,
Mahabubnagar_DC (Telangana),Mahabubnagar,,DC,Telangana,16.745847599999998,77.99366805028575,"Motor Line Mahabubnagar, Mahbubnagar, TG, India",Motor Line Mahabubnagar,,,,,,509001,Mahbubnagar,Mahabubnagar_Urban mandal,Telangana,TG,India,in,0.825,0.825,,© OpenStreetMap contributors,Open Database License,https://www.openstreetmap.org/copyright
Bijnapally_nagar_D (Telangana),Bijnapally,nagar,D,Telangana,19.394147,78.620864,"Mutyampet - Gokul Nagar, -, TG, India",,,,,Mutyampet - Gokul Nagar,AD,,,Adilabad,Telangana,TG,India,in,0,,,© OpenStreetMap contributors,Open Database License,https://www.openstreetmap.org/copyright
Jadcherla_Badeplly_D (Telangana),Jadcherla,Badeplly,D,Telangana,16.7699159,78.1377227,"Jadcherla, TG, India",,,,,,,509301,Jadcherla,Jadcherla mandal,Telangana,TG,India,in,0.5,1,,© OpenStreetMap contributors,Open Database License,https://www.openstreetmap.org/copyright
Shindkheda_KakaCplx_D (Maharashtra),Shindkheda,KakaCplx,D,Maharashtra,21.270921,74.745656,"Shindkheda, MH, India",,,,,,,425406,Shindkheda,Shindkheda Taluka,Maharashtra,MH,India,in,0.5,1,,© OpenStreetMap contributors,Open Database License,https://www.openstreetmap.org/copyright
Narnaul_DC (Haryana),Narnaul,,DC,Haryana,28.0438456,76.1062015,"Narnaul, HR, India",,,,,,,123001,Narnaul,Narnaul,Haryana,HR,India,in,1,1,,© OpenStreetMap contributors,Open Database License,https://www.openstreetmap.org/copyright
Chhibramau_Bhainpura_D (Uttar Pradesh),Chhibramau,Bhainpura,D,Uttar Pradesh,27.1493493,79.5030602,"Chhibramau, UP, India",,,,,,,209721,Chhibramau,Chhibramau,Uttar Pradesh,UP,India,in,0.5,1,,© OpenStreetMap contributors,Open Database License,https://www.openstreetmap.org/copyright
Aliganj_KaimgnjRD_D (Uttar Pradesh),Aliganj,KaimgnjRD,D,Uttar Pradesh,27.494234,79.170519,"Aliganj, EA, India",,,,,,EA,,Aliganj,Etah,Uttar Pradesh,UP,India,in,0.5,1,,Who's On First,CC0,https://www.whosonfirst.org/docs/licenses/
Kishangarh_Central_D_2 (Rajasthan),Kishangarh,Central,D2,Rajasthan,26.5741,74.86685,"Kishangarh, AJ, India",,,,,,AJ,,Kishangarh,Ajmer,Rajasthan,RJ,India,in,0.5,1,,Who's On First,CC0,https://www.whosonfirst.org/docs/licenses/
Parbatsar_AjmhwDPP_D (Rajasthan),Parbatsar,AjmhwDPP,D,Rajasthan,26.8870975,74.7653124,"Parbatsar, RJ, India",,,,,,,341512,Parbatsar,Parbatsar Tehsil,Rajasthan,RJ,India,in,0.5,1,,© OpenStreetMap contributors,Open Database License,https://www.openstreetmap.org/copyright
Aurangabad_Pratpngr_D (Maharashtra),Aurangabad,Pratpngr,D,Maharashtra,19.877263,75.3390241,"Chhatrapati Sambhajinagar, MH, India",,,,,,,431002,Chhatrapati Sambhajinagar,Chhatrapati Sambhajinagar,Maharashtra,MH,India,in,0.5,1,,© OpenStreetMap contributors,Open Database License,https://www.openstreetmap.org/copyright
Mumbai_Chndivli_D (Maharashtra),Mumbai,Chndivli,D,Maharashtra,19.054999,72.8692035,"Mumbai, MH, India",,,,,,,,Mumbai,,Maharashtra,MH,India,in,0.5,1,,© OpenStreetMap contributors,Open Database License,https://www.openstreetmap.org/copyright
Naugchia_Vijayght_D (Bihar),Naugchia,Vijayght,D,Bihar,,,,,,,,,,,,,,,,,,,,,,
Chakia_Wardno10_D (Bihar),Chakia,Wardno10,D,Bihar,26.41598,85.04665,"Chākia, EC, India",,,,,,EC,,Chākia,East Champaran,Bihar,BR,India,in,0.25,1,,GeoNames,CC BY 4.0,https://www.geonames.org/datasources/
Jalgaon_DC (Maharashtra),Jalgaon,,DC,Maharashtra,19.8356018,76.0516018,"Jalgaon, MH, India",,,,,,,,Jalgaon,Jalna,Maharashtra,MH,India,in,1,1,,© OpenStreetMap contributors,Open Database License,https://www.openstreetmap.org/copyright
Bhusawal_Samarth_D (Maharashtra),Bhusawal,Samarth,D,Maharashtra,21.04572,75.7808079,"Bhusawal, MH, India",,,,,,,425200,Bhusawal,Bhusawal,Maharashtra,MH,India,in,0.5,1,,© OpenStreetMap contributors,Open Database License,https://www.openstreetmap.org/copyright
Raver_Truptingr_D (Maharashtra),Raver,Truptingr,D,Maharashtra,,,,,,,,,,,,,,,,,,,,,,
Burhanpur_StRoad_D (Madhya Pradesh),Burhanpur,StRoad,D,Madhya Pradesh,21.3118839,76.2291992,"Burhanpur, MP, India",,,,,,,450331,Burhanpur,Burhanpur Nagar Tahsil,Madhya Pradesh,MP,India,in,0.5,1,,© OpenStreetMap contributors,Open Database License,https://www.openstreetmap.org/copyright
Sivaganga_Wardno3_D (Tamil Nadu),Sivaganga,Wardno3,D,Tamil Nadu,9.8486881,78.4870461,"Sivaganga, TN, India",,,,,,,623560,Sivaganga,Sivaganga,Tamil Nadu,TN,India,in,0.25,1,,© OpenStreetMap contributors,Open Database License,https://www.openstreetmap.org/copyright
Avinashi_Valluvar_D (Tamil Nadu),Avinashi,Valluvar,D,Tamil Nadu,11.1907212,77.266879,"Avinashi, TN, India",,,,,,,641654,Avinashi,Avanashi,Tamil Nadu,TN,India,in,0.5,1,,© OpenStreetMap contributors,Open Database License,https://www.openstreetmap.org/copyright
Nashik_TgrniaRD_I (Maharashtra),Nashik,TgrniaRD,I,Maharashtra,20.0112475,73.7902364,"Nashik, MH, India",,,,,,,422001,Nashik,Nashik Taluka,Maharashtra,MH,India,in,0.5,1,,© OpenStreetMap contributors,Open Database License,https://www.openstreetmap.org/copyright
PNQ Pashan DPC (Maharashtra),PNQ,Pashan,DPC,Maharashtra,18.537539,73.79627,"Pashan-Bavdhan Road, Aundh, Pune - 411045, MH, India",Aundh,,,,Pashan-Bavdhan Road,PU,411045,Pune,Pune,Maharashtra,MH,India,in,0,,,© OpenStreetMap contributors,Open Database License,https://www.openstreetmap.org/copyright
Gomoh_KhsmiDPP_D (Jharkhand),Gomoh,KhsmiDPP,D,Jharkhand,23.8735307,86.151587,"Gomoh, JH, India",,,,,,,828401,Gomoh,Topchanchi,Jharkhand,JH,India,in,0.5,1,,© OpenStreetMap contributors,Open Database License,https://www.openstreetmap.org/copyright
Bilimora_DC (Gujarat),Bilimora,,DC,Gujarat,20.7671693,72.9693451,"Bilimora, GJ, India",,,,,,,396321,Bilimora,Gandevi Taluka,Gujarat,GJ,India,in,1,1,,© OpenStreetMap contributors,Open Database License,https://www.openstreetmap.org/copyright
Vansda_CikhliRD_D (Gujarat),Vansda,CikhliRD,D,Gujarat,20.7610628,73.3636561,"Vansda, GJ, India",,,,,,,396580,Vansda,Vansda Taluka,Gujarat,GJ,India,in,0.5,1,,© OpenStreetMap contributors,Open Database License,https://www.openstreetmap.org/copyright
Bijapur_KirtiNgr_D (Karnataka),Bijapur,KirtiNgr,D,Karnataka,,,,,,,,,,,,,,,,,,,,,,
Mokokchung_Central_D_1 (Nagaland),Mokokchung,Central,D1,Nagaland,26.41303,94.533122,"Central Silk Board Office, Mopungchuket - 798617, NL, India",,,Central Silk Board Office,,,MK,798617,Mopungchuket,Mokokchung,Nagaland,NL,India,in,0.7290000000000001,1,0.7290000000000001,© OpenStreetMap contributors,Open Database License,https://www.openstreetmap.org/copyright
Barauli_SiwanRd_D (Bihar),Barauli,SiwanRd,D,Bihar,26.3826047,84.5867014,"Barauli, BR, India",,,,,,,841405,Barauli,Barauli,Bihar,BR,India,in,0.5,1,,© OpenStreetMap contributors,Open Database License,https://www.openstreetmap.org/copyright
Nandyal_SrnvsNgr_D (Andhra Pradesh),Nandyal,SrnvsNgr,D,Andhra Pradesh,15.475632,78.480557,"Nandyal, KU, India",,,,,,KU,,Nandyal,Kurnool,Andhra Pradesh,AP,India,in,0.5,1,,Who's On First,CC0,https://www.whosonfirst.org/docs/licenses/
Tulsipur_Central_DPP_1 (Uttar Pradesh),Tulsipur,Central,DPP1,Uttar Pradesh,27.5337104,82.4165115,"Tulsipur, UP, India",,,,,,,271208,Tulsipur,Tulsipur,Uttar Pradesh,UP,India,in,0.5,1,,© OpenStreetMap contributors,Open Database License,https://www.openstreetmap.org/copyright
Navsari_DC (Gujarat),Navsari,,DC,Gujarat,20.952407,72.9323831,"Navsari, GJ, India",,,,,,,396400,Navsari,Navsari Taluka,Gujarat,GJ,India,in,1,1,,© OpenStreetMap contributors,Open Database License,https://www.openstreetmap.org/copyright
Valsad_DC (Gujarat),Valsad,,DC,Gujarat,20.6067767,72.9272881,"Valsad, GJ, India",,,,,,,395125,Valsad,Valsad Taluka,Gujarat,GJ,India,in,1,1,,© OpenStreetMap contributors,Open Database License,https://www.openstreetmap.org/copyright
Manapparai_BypassRd_D (Tamil Nadu),Manapparai,BypassRd,D,Tamil Nadu,10.6082305,78.4231246,"Manapparai, TN, India",,,,,,,621306,Manapparai,Manapparai,Tamil Nadu,TN,India,in,0.5,1,,© OpenStreetMap contributors,Open Database License,https://www.openstreetmap.org/copyright
Melur_MduraiRD_D (Tamil Nadu),Melur,MduraiRD,D,Tamil Nadu,11.296735,76.697846,"Melur, NI, India",,,,,,NI,,Melur,Nilgiris,Tamil Nadu,TN,India,in,0.5,1,,Who's On First,CC0,https://www.whosonfirst.org/docs/licenses/
Lakhnadon_Central_DPP_1 (Madhya Pradesh),Lakhnadon,Central,DPP1,Madhya Pradesh,22.6011662,79.609125,"Samnapur, Lakhnadon, MP, India",Samnapur,,,,,,,Lakhnadon,Lakhnadon Tahsil,Madhya Pradesh,MP,India,in,0.5,1,,© OpenStreetMap contributors,Open Database License,https://www.openstreetmap.org/copyright
Seoni_Kidwai_D (Madhya Pradesh),Seoni,Kidwai,D,Madhya Pradesh,22.0910049,79.5507791,"Seoni, MP, India",,,,,,,480600,Seoni,Seoni Tahsil,Madhya Pradesh,MP,India,in,0.5,1,,© OpenStreetMap contributors,Open Database License,https://www.openstreetmap.org/copyright
Chhindwara_NagpurRd_D (Madhya Pradesh),Chhindwara,NagpurRd,D,Madhya Pradesh,22.0578244,78.9386203,"Chhindwara, MP, India",,,,,,,480001,Chhindwara,Chhindwara Tahsil,Madhya Pradesh,MP,India,in,0.5,1,,© OpenStreetMap contributors,Open Database License,https://www.openstreetmap.org/copyright
Mandla_Mharajpr_D (Madhya Pradesh),Mandla,Mharajpr,D,Madhya Pradesh,22.597808,80.3720781,"Mandla, MP, India",,,,,,,481661,Mandla,Mandla Tahsil,Madhya Pradesh,MP,India,in,0.5,1,,© OpenStreetMap contributors,Open Database License,https://www.openstreetmap.org/copyright
Coonoor_Fairybnk_D (Tamil Nadu),Coonoor,Fairybnk,D,Tamil Nadu,11.3459447,76.7965283,"Coonoor, TN, India",,,,,,,643101,Coonoor,Coonoor,Tamil Nadu,TN,India,in,0.5,1,,© OpenStreetMap contributors,Open Database License,https://www.openstreetmap.org/copyright
Chhata_GvrdnDPP_D (Uttar Pradesh),Chhata,GvrdnDPP,D,Uttar Pradesh,27.7226148,77.501663,"Chhata, UP, India",,,,,,,281401,Chhata,Mathura,Uttar Pradesh,UP,India,in,0.5,1,,© OpenStreetMap contributors,Open Database License,https://www.openstreetmap.org/copyright
Kaman_BsstdDPP_D (Rajasthan),Kaman,BsstdDPP,D,Rajasthan,,,,,,,,,,,,,,,,,,,,,,
Khonsa_Central_D_1 (Arunachal Pradesh),Khonsa,Central,D1,Arunachal Pradesh,26.9910099,95.5061065,"Khonsa, AR, India",,,,,,,792130,Khonsa,Khonsa HQ,Arunachal Pradesh,AR,India,in,0.5,1,,© OpenStreetMap contributors,Open Database License,https://www.openstreetmap.org/copyright
Khanapur_StatinRD_D (Karnataka),Khanapur,StatinRD,D,Karnataka,,,,,,,,,,,,,,,,,,,,,,
Hisar_IndstlAr_I (Haryana),Hisar,IndstlAr,I,Haryana,29.1562688,75.7292303,"Hisar, HR, India",,,,,,,125001,Hisar,Hisar,Haryana,HR,India,in,0.5,1,,© OpenStreetMap contributors,Open Database License,https://www.openstreetmap.org/copyright
Sirsa_AnprnDPP_D (Haryana),Sirsa,AnprnDPP,D,Haryana,29.5372849,75.0377649,"Sirsa, HR, India",,,,,,,125055,Sirsa,Sirsa,Haryana,HR,India,in,0.5,1,,© OpenStreetMap contributors,Open Database License,https://www.openstreetmap.org/copyright
Jammu_Central_I_1 (Jammu & Kashmir),Jammu,Central,I1,Jammu & Kashmir,32.701716,74.862023,"Central Lane, Jammu, Pakistan",,,,,Central Lane,JM,,Jammu,Jammu,Jammu and Kashmir,,Pakistan,pk,0.9,1,0.9,© OpenStreetMap contributors,Open Database License,https://www.openstreetmap.org/copyright
Mumbai_MiraRoad_M (Maharashtra),Mumbai,MiraRoad,M,Maharashtra,19.054999,72.8692035,"Mumbai, MH, India",,,,,,,,Mumbai,,Maharashtra,MH,India,in,0.5,1,,© OpenStreetMap contributors,Open Database License,https://www.openstreetmap.org/copyright
Jath_Shivprsad_D (Maharashtra),Jath,Shivprsad,D,Maharashtra,17.0489913,75.21771,"Jath, MH, India",,,,,,,416404,Jath,Jat,Maharashtra,MH,India,in,0.5,1,,© OpenStreetMap contributors,Open Database License,https://www.openstreetmap.org/copyright
Bengaluru_Banshkri_DC (Karnataka),Bengaluru,Banshkri,DC,Karnataka,12.9767936,77.590082,"Bengaluru, KA, India",,,,,,,560001,Bengaluru,Bangalore North,Karnataka,KA,India,in,0.5,1,,© OpenStreetMap contributors,Open Database License,https://www.openstreetmap.org/copyright
Gurgaon_Bilaspur_RP (Haryana),Gurgaon,Bilaspur,RP,Haryana,28.42826235,77.00270014657752,"Gurgaon, HR, India",,,,,,,,Gurgaon,,Haryana,HR,India,in,0.5,1,,© OpenStreetMap contributors,Open Database License,https://www.openstreetmap.org/copyright
Satna_Central_I_2 (Madhya Pradesh),Satna,Central,I2,Madhya Pradesh,22.717458,75.883963,"Central Clinic, 5, Ratlam Kothi,Near Brainmaster Classes, Geeta Bhavan Square, Indore - 452001, MP, India",,5,Central Clinic,,"Ratlam Kothi,Near Brainmaster Classes, Geeta Bhavan Square",IN,452001,Indore,Indore,Madhya Pradesh,MP,India,in,0,,,© OpenStreetMap contributors,Open Database License,https://www.openstreetmap.org/copyright
Churhat_Central_DPP_1 (Madhya Pradesh),Churhat,Central,DPP1,Madhya Pradesh,24.4279649,81.6703044,"Churhat, MP, India",,,,,,,486771,Churhat,Churhat Tahsil,Madhya Pradesh,MP,India,in,0.5,1,,© OpenStreetMap contributors,Open Database License,https://www.openstreetmap.org/copyright
Sidhi_Padra_D (Madhya Pradesh),Sidhi,Padra,D,Madhya Pradesh,24.396674,81.849481,"Padra, SD, India",,,,,,SD,,Padra,Sidhi,Madhya Pradesh,MP,India,in,0.5,1,,Who's On First,CC0,https://www.whosonfirst.org/docs/licenses/
Bokaro_KSClny_DC (Jharkhand),Bokaro,KSClny,DC,Jharkhand,23.6544338,86.1456444,"Bokaro, JH, India",,,,,,,827004,Bokaro,Chas,Jharkhand,JH,India,in,0.5,1,,© OpenStreetMap contributors,Open Database License,https://www.openstreetmap.org/copyright
Dalkhola_DltprDPP_D (West Bengal),Dalkhola,DltprDPP,D,West Bengal,,,,,,,,,,,,,,,,,,,,,,
Gandhidham_Sector1A_IP (Gujarat),Gandhidham,Sector1A,IP,Gujarat,23.068737,70.133876,"Sector 1A, Gandhidham - 370201, GJ, India",,Sector 1A,,,Sector 1A,KA,370201,Gandhidham,Kachchh,Gujarat,GJ,India,in,1,1,1,© OpenStreetMap contributors,Open Database License,https://www.openstreetmap.org/copyright
Halvad_CrossRD_D (Gujarat),Halvad,CrossRD,D,Gujarat,23.0159728,71.1797028,"Halvad, GJ, India",,,,,,,363330,Halvad,Halvad Taluka,Gujarat,GJ,India,in,0.5,1,,© OpenStreetMap contributors,Open Database License,https://www.openstreetmap.org/copyright
Dhrangadhra_NvygRDPP_D (Gujarat),Dhrangadhra,NvygRDPP,D,Gujarat,22.9914292,71.4663753,"Dhrangadhra, GJ, India",,,,,,,363300,Dhrangadhra,Dhrangadhra Taluka,Gujarat,GJ,India,in,0.5,1,,© OpenStreetMap contributors,Open Database License,https://www.openstreetmap.org/copyright
